"ID","FIRSTYEAR","LASTYEAR","STATE","LATITUDE","LONGITUDE","ELEVATION","NAME","STATE_NAME","RECORD_LENGTH"
"AQW00061705",1966,2026,"AS",-14.3306,-170.7136,3.7,"PAGO PAGO WSO AP","AMERICAN SAMOA",61
"CA001011500",1979,2024,"BC",48.9333,-123.75,75,"CHEMAINUS","BRITISH COLUMBIA",46
"CA001012055",1960,2024,"BC",48.8333,-124.05,171,"LAKE COWICHAN","BRITISH COLUMBIA",65
"CA001012475",1997,2025,"BC",48.4167,-123.2333,15,"DISCOVERY ISLAND","BRITISH COLUMBIA",29
"CA001012710",1991,2025,"BC",48.4333,-123.4333,3,"ESQUIMALT HARBOUR","BRITISH COLUMBIA",35
"CA001014820",1991,2025,"BC",48.5667,-123.5333,366,"MALAHAT","BRITISH COLUMBIA",35
"CA001015630",2007,2025,"BC",48.8167,-123.7167,47,"NORTH COWICHAN","BRITISH COLUMBIA",19
"CA001015638",1972,2024,"BC",48.7667,-123.2833,98,"NORTH PENDER ISLAND","BRITISH COLUMBIA",53
"CA001016640",1996,2025,"BC",48.3,-123.5333,3,"RACE ROCKS CS","BRITISH COLUMBIA",30
"CA001016940",1914,2023,"BC",48.6167,-123.4167,61,"SAANICHTON CDA","BRITISH COLUMBIA",110
"CA001017099",1991,2025,"BC",48.7833,-123.1333,178,"SATURNA CAPMON CS","BRITISH COLUMBIA",35
"CA001017101",1980,2025,"BC",48.7833,-123.05,24,"SATURNA ISLAND CS","BRITISH COLUMBIA",46
"CA001017230",1913,2023,"BC",48.65,-123.6333,138,"SHAWNIGAN LAKE","BRITISH COLUMBIA",111
"CA001017254",1992,2025,"BC",48.3833,-123.9167,22,"SHERINGHAM POINT","BRITISH COLUMBIA",34
"CA001018598",1992,2025,"BC",48.45,-123.3,60,"VICTORIA UNIVERSITY CS","BRITISH COLUMBIA",34
"CA001018610",1898,2025,"BC",48.4167,-123.3167,70,"VICTORIA GONZALES HTS","BRITISH COLUMBIA",128
"CA001018611",1973,2024,"BC",48.0333,-123.3333,70,"VICTORIA GONZALES CS","BRITISH COLUMBIA",52
"CA001020590",1992,2025,"BC",49.35,-124.1667,13,"BALLENAS ISLAND","BRITISH COLUMBIA",34
"CA001021261",1965,2024,"BC",49.95,-125.2667,109,"CAMPBELL RIVER A","BRITISH COLUMBIA",60
"CA001021330",1978,2024,"BC",50,-125.2,5,"CAPE MUDGE","BRITISH COLUMBIA",47
"CA001021480",1958,2024,"BC",50.3333,-125.45,23,"CHATHAM POINT","BRITISH COLUMBIA",67
"CA001021830",1944,2025,"BC",49.7167,-124.9,26,"COMOX A","BRITISH COLUMBIA",82
"CA001021988",1979,2024,"BC",49.7667,-125,81,"COURTENAY GRANTHAM","BRITISH COLUMBIA",46
"CA001021989",1986,2024,"BC",49.6833,-125.0333,40,"COURTENAY PUNTLEDGE","BRITISH COLUMBIA",39
"CA001022689",1992,2025,"BC",49.2167,-123.8,5,"ENTRANCE ISLAND CS","BRITISH COLUMBIA",34
"CA001022795",2000,2025,"BC",50.45,-126,8,"FANNY ISLAND","BRITISH COLUMBIA",26
"CA001024638",1981,2023,"BC",49.35,-124.5167,30,"LITTLE QUALICUM HATCHERY","BRITISH COLUMBIA",43
"CA001026170",1986,2024,"BC",50.9833,-127.7333,15,"PINE ISLAND","BRITISH COLUMBIA",39
"CA001026270",1944,2025,"BC",50.6833,-127.3667,22,"PORT HARDY A","BRITISH COLUMBIA",82
"CA001026562",2006,2024,"BC",49.3333,-124.4,58,"QUALICUM BEACH AIRPORT","BRITISH COLUMBIA",19
"CA001026565",1962,2024,"BC",49.4,-124.6167,8,"QUALICUM R FISH RESEARCH","BRITISH COLUMBIA",63
"CA001026639",1975,2024,"BC",50.0167,-125.3,46,"QUINSAM RIVER HATCHERY","BRITISH COLUMBIA",50
"CA001027403",1993,2025,"BC",49.4833,-124.4333,20,"SISTERS ISLAND","BRITISH COLUMBIA",33
"CA00102BFHH",1987,2024,"BC",49.2167,-123.8167,5,"ENTRANCE ISLAND","BRITISH COLUMBIA",38
"CA001030230",1961,2024,"BC",49.3333,-124.9833,74,"ALBERNI ROBERTSON CREEK","BRITISH COLUMBIA",64
"CA001031316",1984,2024,"BC",48.7833,-125.2167,26,"CAPE BEALE LIGHT","BRITISH COLUMBIA",41
"CA001031353",1965,2024,"BC",50.7833,-128.4333,72,"CAPE SCOTT","BRITISH COLUMBIA",60
"CA001032730",1908,2024,"BC",49.3833,-126.55,7,"ESTEVAN POINT","BRITISH COLUMBIA",117
"CA001032731",1977,2025,"BC",49.3833,-126.55,7,"ESTEVAN POINT CS","BRITISH COLUMBIA",49
"CA001034600",2011,2024,"BC",49.1167,-125.9167,11,"LENNARD ISLAND","BRITISH COLUMBIA",14
"CA001035612",1981,2024,"BC",48.8667,-124.65,15,"NITINAT RIVER HATCHERY","BRITISH COLUMBIA",44
"CA001035614",1978,2024,"BC",49.6,-126.6167,16,"NOOTKA LIGHTSTATION","BRITISH COLUMBIA",47
"CA001035940",1924,2024,"BC",48.7167,-125.1,37,"PACHENA POINT","BRITISH COLUMBIA",101
"CA001036570",1895,2024,"BC",50.5333,-127.65,3,"QUATSINO","BRITISH COLUMBIA",130
"CA001036572",1978,2024,"BC",50.4333,-128.0333,21,"QUATSINO LIGHTSTATION","BRITISH COLUMBIA",47
"CA001036B06",1992,2025,"BC",49.3167,-124.9333,76,"PORT ALBERNI (AUT)","BRITISH COLUMBIA",34
"CA001037090",1995,2025,"BC",50.8167,-128.9,112,"SARTINE ISLAND (AUT)","BRITISH COLUMBIA",31
"CA001037553",1995,2025,"BC",50.1167,-127.9333,99,"SOLANDER ISLAND (AUT)","BRITISH COLUMBIA",31
"CA001037899",1993,2024,"BC",49.9333,-126.65,9,"TAHSIS VILLAGE NORTH","BRITISH COLUMBIA",32
"CA001038205",1943,2023,"BC",49.0833,-125.7667,24,"TOFINO A","BRITISH COLUMBIA",81
"CA001038332",1988,2024,"BC",48.95,-125.5333,30,"UCLUELET KENNEDY CAMP","BRITISH COLUMBIA",37
"CA001039035",2010,2024,"BC",50.05,-126.7833,103,"ZEBALLOS MURAUDE CREEK","BRITISH COLUMBIA",15
"CA001043152",1970,2024,"BC",49.3833,-123.5333,34,"GIBSONS GOWER POINT","BRITISH COLUMBIA",55
"CA001045100",1960,2024,"BC",49.4667,-123.9167,6,"MERRY ISLAND LIGHTSTATION","BRITISH COLUMBIA",65
"CA0010459NN",1991,2025,"BC",49.4833,-123.3,5,"HOWE SOUND - PAM ROCKS","BRITISH COLUMBIA",35
"CA001046332",2006,2025,"BC",49.5333,-123.5,123,"PORT MELLON","BRITISH COLUMBIA",20
"CA001046391",1954,2024,"BC",49.8333,-124.5,130,"POWELL RIVER A","BRITISH COLUMBIA",71
"CA001046392",2007,2025,"BC",49.8333,-124.5,125,"POWELL RIVER","BRITISH COLUMBIA",19
"CA001047172",2007,2025,"BC",49.45,-123.7167,86,"SECHELT AUT","BRITISH COLUMBIA",19
"CA0010476F0",1982,2025,"BC",49.7833,-123.1667,52,"SQUAMISH AUT0","BRITISH COLUMBIA",44
"CA001048898",1976,2024,"BC",50.1333,-122.95,658,"WHISTLER","BRITISH COLUMBIA",49
"CA001051351",1992,2024,"BC",51.9333,-131.0167,88,"CAPE ST JAMES CS","BRITISH COLUMBIA",33
"CA001054500",1936,2024,"BC",54.25,-133.05,43,"LANGARA","BRITISH COLUMBIA",89
"CA001054503",1993,2025,"BC",54.25,-133.0667,44,"LANGARA ISLAND RCS","BRITISH COLUMBIA",33
"CA001056869",1995,2025,"BC",54.1667,-131.6667,7,"ROSE SPIT (AUT)","BRITISH COLUMBIA",31
"CA001057052",2010,2024,"BC",53.25,-131.8167,6,"SANDSPIT","BRITISH COLUMBIA",15
"CA001060080",1978,2024,"BC",51.6,-127.8667,21,"ADDENBROKE ISLAND","BRITISH COLUMBIA",47
"CA001060815",2011,2025,"BC",52.1833,-128.15,43,"BELLA BELLA","BRITISH COLUMBIA",15
"CA001060901",1974,2024,"BC",52.65,-128.5167,11,"BOAT BLUFF","BRITISH COLUMBIA",51
"CA001060902",1965,2024,"BC",53.5,-130.6333,16,"BONILLA ISLAND","BRITISH COLUMBIA",60
"CA001060R0K",1995,2025,"BC",53.5,-130.6333,13,"BONILLA ISLAND (AUT)","BRITISH COLUMBIA",31
"CA001061458",1995,2025,"BC",52.1833,-127.4667,26,"CATHEDRAL POINT (AUT)","BRITISH COLUMBIA",31
"CA001062251",1992,2025,"BC",53.0333,-131.6,13,"CUMSHEWA ISLAND","BRITISH COLUMBIA",34
"CA001062544",1977,2024,"BC",52.1833,-128.1167,4,"DRYAD POINT","BRITISH COLUMBIA",48
"CA001062646",1965,2024,"BC",51.25,-127.8333,14,"EGG ISLAND","BRITISH COLUMBIA",60
"CA001063298",1978,2024,"BC",54.5667,-130.7,12,"GREEN ISLAND","BRITISH COLUMBIA",47
"CA001063303",1995,2025,"BC",54.5833,-130.7,10,"GREY ISLET (AUT)","BRITISH COLUMBIA",31
"CA001063461",1995,2025,"BC",50.9333,-127.6333,14,"HERBERT ISLAND (AUT)","BRITISH COLUMBIA",31
"CA001063496",1991,2025,"BC",54.1667,-130.3667,9,"HOLLAND ROCK","BRITISH COLUMBIA",35
"CA001063690",1948,2024,"BC",52.2667,-128.4,10,"IVORY ISLAND","BRITISH COLUMBIA",77
"CA001064020",1951,2024,"BC",53.5667,-127.95,87,"KEMANO","BRITISH COLUMBIA",74
"CA001064321",1966,2023,"BC",54.0167,-128.7,17,"KITIMAT 2","BRITISH COLUMBIA",58
"CA001064728",1991,2025,"BC",54.3,-130.6167,23,"LUCY ISLAND LIGHTSTATION","BRITISH COLUMBIA",35
"CA001065010",1955,2024,"BC",52.2667,-128.7167,26,"MCINNES ISLAND","BRITISH COLUMBIA",70
"CA001066482",2010,2025,"BC",54.2833,-130.45,35,"PRINCE RUPERT","BRITISH COLUMBIA",16
"CA001068131",1968,2024,"BC",54.5,-128.6167,58,"TERRACE PCC","BRITISH COLUMBIA",57
"CA001068134",2013,2024,"BC",54.4667,-128.5833,217,"TERRACE A","BRITISH COLUMBIA",12
"CA001068250",1989,2024,"BC",54.3,-130.8833,21,"TRIPLE ISLAND","BRITISH COLUMBIA",36
"CA00106D289",1995,2024,"BC",54.05,-128.6833,11,"KITIMAT HATCHERY","BRITISH COLUMBIA",30
"CA001073615",1957,2024,"BC",54.4,-126.6667,610,"HOUSTON","BRITISH COLUMBIA",68
"CA001077499",1957,2025,"BC",54.8333,-127.1833,523,"SMITHERS","BRITISH COLUMBIA",69
"CA00107G879",1982,2024,"BC",55.2833,-127.1667,534,"SUSKWA VALLEY","BRITISH COLUMBIA",43
"CA001085836",2005,2025,"BC",53.7667,-126,861,"OOTSA LAKESKINS LAKE CLIMATE","BRITISH COLUMBIA",21
"CA001086082",1984,2025,"BC",50.3,-122.7333,204,"PEMBERTON AIRPORT CS","BRITISH COLUMBIA",42
"CA001086558",1993,2025,"BC",52.1167,-124.1333,910,"PUNTZI MOUNTAIN (AUT)","BRITISH COLUMBIA",33
"CA001088015",2000,2025,"BC",51.6667,-124.4,875,"TATLAYOKO LAKE RCS","BRITISH COLUMBIA",26
"CA001090660",1888,2024,"BC",53.0667,-121.5167,1283,"BARKERVILLE","BRITISH COLUMBIA",137
"CA001091174",1990,2025,"BC",54.3833,-125.9667,713,"BURNS LAKE DECKER LAKE","BRITISH COLUMBIA",36
"CA001093474",1970,2024,"BC",53.5333,-122.7,551,"HIXON","BRITISH COLUMBIA",55
"CA001095018",1972,2024,"BC",52.5333,-122.2833,1133,"MCLEESE LAKE GRANITE MT","BRITISH COLUMBIA",53
"CA001096439",1957,2025,"BC",53.8833,-122.6833,691,"PRINCE GEORGE","BRITISH COLUMBIA",69
"CA001096453",2009,2025,"BC",53.8833,-122.6667,680,"PRINCE GEORGE AIRPORT AUTO","BRITISH COLUMBIA",17
"CA001096629",2010,2025,"BC",53.0333,-122.5167,545,"QUESNEL","BRITISH COLUMBIA",16
"CA001096631",2009,2025,"BC",53.0333,-122.5,545,"QUESNEL AIRPORT AUTO","BRITISH COLUMBIA",17
"CA001097646",1983,2024,"BC",52.1833,-121.6833,1040,"SPOKIN LAKE 4E","BRITISH COLUMBIA",42
"CA001098941",2012,2024,"BC",52.1833,-122.05,940,"WILLIAMS LAKE A","BRITISH COLUMBIA",13
"CA001100031",2012,2024,"BC",49.0333,-122.3667,59,"ABBOTSFORD A","BRITISH COLUMBIA",13
"CA001100119",1988,2025,"BC",49.25,-121.7667,19,"AGASSIZ CS","BRITISH COLUMBIA",38
"CA001100120",1889,2023,"BC",49.25,-121.7667,15,"AGASSIZ CDA","BRITISH COLUMBIA",135
"CA001100875",2005,2025,"BC",50.1333,-122.95,659,"WHISTLER - NESTERS","BRITISH COLUMBIA",21
"CA001101300",2005,2024,"BC",50.15,-123.1167,884,"CALLAGHAN VALLEY","BRITISH COLUMBIA",20
"CA001101708",1992,2024,"BC",49.1167,-122.7,50,"CLOVERDALE EAST","BRITISH COLUMBIA",33
"CA001102415",2011,2024,"BC",49.1333,-123,3,"DELTA BURNS BOG","BRITISH COLUMBIA",14
"CA001102425",1987,2024,"BC",49.0167,-123.1,2,"DELTA TSAWWASSEN BEACH","BRITISH COLUMBIA",38
"CA001102912",2005,2024,"BC",49.15,-122.55,76,"FORT LANGLEY TELEGRAPH TRAIL","BRITISH COLUMBIA",20
"CA001103332",1961,2024,"BC",49.2667,-122.5667,147,"HANEY UBC RF ADMIN","BRITISH COLUMBIA",64
"CA001105192",1962,2024,"BC",49.15,-122.2667,221,"MISSION WEST ABBEY","BRITISH COLUMBIA",63
"CA001105658",1971,2024,"BC",49.3667,-123.0833,1128,"N VANC GROUSE MTN RESORT","BRITISH COLUMBIA",54
"CA001106178",1993,2025,"BC",49.2,-122.6833,5,"PITT MEADOWS CS","BRITISH COLUMBIA",33
"CA001106200",1997,2025,"BC",49.3333,-123.2667,35,"POINT ATKINSON","BRITISH COLUMBIA",29
"CA001106CL2",1970,2024,"BC",49.2833,-122.8833,130,"PORT MOODY GLENAYRE","BRITISH COLUMBIA",55
"CA001106PF7",1977,2023,"BC",49.1667,-123.1,3,"RICHMOND NATURE PARK","BRITISH COLUMBIA",47
"CA001107010",1991,2025,"BC",49.1,-123.3,11,"SANDHEADS CS","BRITISH COLUMBIA",35
"CA001107785",1958,2024,"BC",49.1167,-122.1167,9,"SUMAS CANAL","BRITISH COLUMBIA",67
"CA001108380",2013,2024,"BC",49.1833,-123.1833,2,"VANCOUVER SEA ISLAND CCG","BRITISH COLUMBIA",12
"CA001108395",1957,2025,"BC",49.2,-123.1833,4,"VANCOUVER INTL A","BRITISH COLUMBIA",69
"CA001108446",1958,2025,"BC",49.3,-123.1167,3,"VANCOUVER HARBOUR CS","BRITISH COLUMBIA",68
"CA001108824",1992,2025,"BC",49.35,-123.2,170,"WEST VANCOUVER AUT","BRITISH COLUMBIA",34
"CA001108906",1972,2024,"BC",50.0667,-122.95,1835,"WHISTLER ROUNDHOUSE","BRITISH COLUMBIA",53
"CA001108910",1929,2025,"BC",49.0167,-122.7833,13,"WHITE ROCK CAMPBELL SCIENTIFIC","BRITISH COLUMBIA",97
"CA00110N666",1981,2023,"BC",49.4333,-122.9667,183,"N VAN SEYMOUR HATCHERY","BRITISH COLUMBIA",43
"CA001113542",2011,2024,"BC",49.3667,-121.5,39,"HOPE","BRITISH COLUMBIA",14
"CA001113543",2012,2024,"BC",49.3667,-121.5,39,"HOPE AIRPORT","BRITISH COLUMBIA",13
"CA001113581",1975,2024,"BC",49.2833,-121.2333,688,"HOPE SLIDE","BRITISH COLUMBIA",50
"CA001114619",1997,2025,"BC",50.6833,-121.9333,254,"LILLOOET","BRITISH COLUMBIA",29
"CA001114746",2006,2025,"BC",50.2167,-121.5833,225,"LYTTON RCS","BRITISH COLUMBIA",20
"CA001123721",1995,2024,"BC",49.6667,-120.3333,929,"JELLICOE","BRITISH COLUMBIA",30
"CA001123939",2009,2024,"BC",49.95,-119.3833,433,"KELOWNA","BRITISH COLUMBIA",16
"CA001125073",2011,2025,"BC",50.1167,-120.7833,591,"MERRITT","BRITISH COLUMBIA",15
"CA001125079",1968,2024,"BC",50.1167,-120.8,609,"MERRITT STP","BRITISH COLUMBIA",57
"CA001125852",1990,2025,"BC",49.0333,-119.4333,283,"OSOYOOS CS","BRITISH COLUMBIA",36
"CA001126070",1971,2024,"BC",49.7833,-119.7167,345,"PEACHLAND","BRITISH COLUMBIA",54
"CA001126146",2012,2024,"BC",49.4667,-119.6,344,"PENTICTON A","BRITISH COLUMBIA",13
"CA001126510",1936,2024,"BC",49.4667,-120.5167,702,"PRINCETON A","BRITISH COLUMBIA",89
"CA001128582",2005,2025,"BC",50.2167,-119.2,482,"VERNON AUTO","BRITISH COLUMBIA",21
"CA001128584",1970,2024,"BC",50.3667,-119.05,1586,"VERNON SILVER STAR LODGE","BRITISH COLUMBIA",55
"CA00112FN0M",1992,2025,"BC",49.4667,-120.5167,697,"PRINCETON CS","BRITISH COLUMBIA",34
"CA00112G8L1",1990,2025,"BC",49.5667,-119.65,454,"SUMMERLAND CS","BRITISH COLUMBIA",36
"CA001135126",1988,2023,"BC",49,-118.7667,580,"MIDWAY","BRITISH COLUMBIA",36
"CA001140876",1984,2024,"BC",49.0167,-118.2333,510,"BILLINGS","BRITISH COLUMBIA",41
"CA001141455",1965,2024,"BC",49.3,-117.6333,496,"CASTLEGAR A","BRITISH COLUMBIA",60
"CA001141457",1969,2024,"BC",49.35,-117.7667,435,"CASTLEGAR BCHPA DAM","BRITISH COLUMBIA",56
"CA001142574",1963,2024,"BC",50.2333,-116.9667,549,"DUNCAN LAKE DAM","BRITISH COLUMBIA",62
"CA001144635",1987,2024,"BC",49.0333,-116.45,660,"LISTER","BRITISH COLUMBIA",38
"CA001145297",1991,2025,"BC",50.2667,-117.8167,512,"NAKUSP CS","BRITISH COLUMBIA",35
"CA001145442",1983,2023,"BC",49.5833,-117.2,570,"NELSON NE","BRITISH COLUMBIA",41
"CA001145460",1967,2024,"BC",50,-117.3667,568,"NEW DENVER","BRITISH COLUMBIA",58
"CA001145M29",1992,2025,"BC",49.4833,-117.3,535,"NELSON CS","BRITISH COLUMBIA",34
"CA001148705",2001,2025,"BC",49.1167,-117.7333,567,"WARFIELD RCS","BRITISH COLUMBIA",25
"CA00114B1F0",1993,2025,"BC",49.0833,-116.5,646,"CRESTON CAMPBELL SCIENTIFIC","BRITISH COLUMBIA",33
"CA00114EMDM",1991,2024,"BC",49.5167,-117.4,760,"NELSON RIXEN CREEK","BRITISH COLUMBIA",34
"CA001152105",2012,2024,"BC",49.6167,-115.7833,940,"CRANBROOK A","BRITISH COLUMBIA",13
"CA001152850",1913,2024,"BC",49.4833,-115.0667,1001,"FERNIE","BRITISH COLUMBIA",112
"CA001153034",1968,2024,"BC",49.5167,-115.4667,856,"FT STEELE DANDY CRK","BRITISH COLUMBIA",57
"CA001154203",1987,2024,"BC",49.6333,-115.9667,889,"KIMBERLEY PCC","BRITISH COLUMBIA",38
"CA001157631",1992,2025,"BC",49.75,-114.8833,1138,"SPARWOOD CS","BRITISH COLUMBIA",34
"CA001160515",2010,2025,"BC",50.7167,-121.2833,327,"ASHCROFT","BRITISH COLUMBIA",16
"CA001160899",1969,2024,"BC",52.1333,-119.2833,683,"BLUE RIVER A","BRITISH COLUMBIA",56
"CA001160H99",1992,2024,"BC",52.1333,-119.2833,683,"BLUE RIVER CS","BRITISH COLUMBIA",33
"CA001163780",1951,2025,"BC",50.7,-120.45,345,"KAMLOOPS A","BRITISH COLUMBIA",75
"CA001163842",2006,2025,"BC",50.7,-120.45,345,"KAMLOOPS AUT","BRITISH COLUMBIA",20
"CA001165793",1987,2023,"BC",51.6833,-121.2167,928,"100 MILE HOUSE 6NE","BRITISH COLUMBIA",37
"CA001166658",1974,2024,"BC",50.9333,-120.8,1162,"RED LAKE","BRITISH COLUMBIA",51
"CA001168520",1913,2024,"BC",51.5833,-119.7833,445,"VAVENBY","BRITISH COLUMBIA",112
"CA00116C8P0",1988,2024,"BC",50.6,-120.2,640,"KAMLOOPS PRATT ROAD","BRITISH COLUMBIA",37
"CA00116FRMN",1991,2025,"BC",50.7,-119.2833,351,"SALMON ARM CS","BRITISH COLUMBIA",35
"CA001173191",1965,2024,"BC",51.3,-117.5167,1340,"GLACIER NP ROGERS PASS","BRITISH COLUMBIA",60
"CA001173210",1902,2024,"BC",51.3,-116.9833,785,"GOLDEN A","BRITISH COLUMBIA",123
"CA001175122",1951,2024,"BC",52.05,-118.5833,579,"MICA DAM","BRITISH COLUMBIA",74
"CA001176745",2011,2025,"BC",50.9667,-118.1833,445,"REVELSTOKE","BRITISH COLUMBIA",15
"CA0011790J1",1992,2025,"BC",51.45,-116.35,1602,"YOHO PARK","BRITISH COLUMBIA",34
"CA00117CA90",1969,2024,"BC",51.2333,-117.7,1890,"GLACIER NP MT FIDELITY","BRITISH COLUMBIA",56
"CA001181508",1982,2024,"BC",55.6833,-121.6333,610,"CHETWYND A","BRITISH COLUMBIA",43
"CA001182289",2009,2024,"BC",55.75,-120.1833,655,"DAWSON CREEK A","BRITISH COLUMBIA",16
"CA001183001",2012,2024,"BC",56.2333,-120.7333,695,"FORT ST. JOHN A","BRITISH COLUMBIA",13
"CA001184791",2010,2024,"BC",55.3,-123.1333,690,"MACKENZIE","BRITISH COLUMBIA",15
"CA001192341",2011,2025,"BC",58.4167,-130.0333,803,"DEASE LAKE","BRITISH COLUMBIA",15
"CA001192946",1957,2025,"BC",58.8333,-122.6,382,"FORT NELSON A","BRITISH COLUMBIA",69
"CA00119BLM0",1993,2025,"BC",58.4333,-130.0333,802,"DEASE LAKE (AUT)","BRITISH COLUMBIA",33
"CA002100181",2011,2025,"YT",61.3667,-139.0333,805,"BURWASH","YUKON TERRITORY",15
"CA002100301",1999,2025,"YT",62.1167,-136.2,543,"CARMACKS CS","YUKON TERRITORY",27
"CA002100402",1976,2025,"YT",64.05,-139.1333,370,"DAWSON A","YUKON TERRITORY",50
"CA002100518",1992,2025,"YT",62.2,-133.3833,717,"FARO (AUT)","YUKON TERRITORY",34
"CA002100630",1944,2025,"YT",60.7667,-137.5833,595,"HAINES JUNCTION","YUKON TERRITORY",82
"CA002100636",1974,2025,"YT",69.5667,-138.9167,1,"HERSCHEL ISLAND","YUKON TERRITORY",52
"CA002100660",1995,2025,"YT",69.1667,-140.15,244,"IVVAVIK NAT. PARK","YUKON TERRITORY",31
"CA002100682",1994,2024,"YT",69.6167,-140.2,13,"KOMAKUK BEACH","YUKON TERRITORY",31
"CA002100693",1998,2025,"YT",63.25,-130.0333,1379,"MACMILLAN PASS","YUKON TERRITORY",28
"CA002100697",1997,2025,"YT",68.8,-140.85,568,"MARGARET LAKE","YUKON TERRITORY",29
"CA002100805",1995,2025,"YT",67.5667,-139.8333,251,"OLD CROW RCS","YUKON TERRITORY",31
"CA002100840",1980,2024,"YT",61.0333,-137.05,830,"OTTER FALLS NCPC","YUKON TERRITORY",45
"CA002100935",1995,2025,"YT",66.9833,-136.2167,731,"ROCK RIVER","YUKON TERRITORY",31
"CA002100950",1957,2023,"YT",68.95,-137.2167,49,"SHINGLE POINT A","YUKON TERRITORY",67
"CA002100LRP",1995,2024,"YT",64.05,-139.1333,370,"DAWSON","YUKON TERRITORY",30
"CA002101102",1992,2025,"YT",60.1667,-132.7333,705,"TESLIN (AUT)","YUKON TERRITORY",34
"CA002101204",2002,2025,"YT",60.1167,-128.8167,690,"WATSON LAKE (AUT)","YUKON TERRITORY",24
"CA002101300",1942,2025,"YT",60.7167,-135.0667,706,"WHITEHORSE A","YUKON TERRITORY",84
"CA002101303",2012,2024,"YT",60.7167,-135.0667,706,"WHITEHORSE A","YUKON TERRITORY",13
"CA002101310",2009,2025,"YT",60.7333,-135.1,707,"WHITEHORSE AUTO","YUKON TERRITORY",17
"CA002200675",1957,2023,"NT",70.1667,-124.7167,87,"CAPE PARRY A","NORTHWEST TERRITORIES",67
"CA002200824",1995,2025,"NT",67.05,-126.0833,259,"COLVILLE LAKE","NORTHWEST TERRITORIES",31
"CA002201022",1999,2025,"NT",65.2167,-123.4333,213,"DELINE CS","NORTHWEST TERRITORIES",27
"CA0022010H0",2001,2025,"NT",61.25,-124.4667,283,"DEADMEN VALLEY","NORTHWEST TERRITORIES",25
"CA002201450",1998,2025,"NT",66.25,-128.65,82,"FORT GOOD HOPE CS","NORTHWEST TERRITORIES",28
"CA002201579",1996,2025,"NT",60.2333,-123.4667,213,"FORT LIARD","NORTHWEST TERRITORIES",30
"CA002201799",1994,2025,"NT",61.3167,-117.6,162,"FORT PROVIDENCE","NORTHWEST TERRITORIES",32
"CA002201903",1994,2025,"NT",62.7167,-109.1667,168,"FORT RELIANCE (AUT)","NORTHWEST TERRITORIES",32
"CA002202102",2003,2025,"NT",61.7667,-121.2333,168,"FORT SIMPSON CLIMATE","NORTHWEST TERRITORIES",23
"CA002202115",1957,2025,"NT",61.7667,-121.2333,169,"FORT SIMPSON","NORTHWEST TERRITORIES",69
"CA002202200",1943,2025,"NT",60.0167,-111.9667,205,"FORT SMITH A","NORTHWEST TERRITORIES",83
"CA002202202",2003,2025,"NT",60.0333,-111.9333,203,"FORT SMITH CLIMATE","NORTHWEST TERRITORIES",23
"CA002202351",1995,2025,"NT",63.6,-105.1333,317,"HANBURY RIVER","NORTHWEST TERRITORIES",31
"CA002202400",1943,2025,"NT",60.8333,-115.7833,165,"HAY RIVER A","NORTHWEST TERRITORIES",83
"CA002202402",2003,2025,"NT",60.8333,-115.7833,164,"HAY RIVER CLIMATE","NORTHWEST TERRITORIES",23
"CA002202560",1994,2025,"NT",61.9167,-113.7333,165,"INNER WHALEBACKS","NORTHWEST TERRITORIES",32
"CA002202578",2003,2025,"NT",68.3167,-133.5167,103,"INUVIK CLIMATE","NORTHWEST TERRITORIES",23
"CA002202678",1974,2025,"NT",63.1333,-117.25,271,"LAC LA MARTRE","NORTHWEST TERRITORIES",52
"CA002202801",1957,2025,"NT",65.2833,-126.8,73,"NORMAN WELLS","NORTHWEST TERRITORIES",69
"CA002202810",2004,2025,"NT",65.2833,-126.75,94,"NORMAN WELLS CLIMATE","NORTHWEST TERRITORIES",22
"CA002203058",1994,2025,"NT",69.35,-124.0833,6,"PAULATUK","NORTHWEST TERRITORIES",32
"CA002203095",1993,2025,"NT",69.6333,-135.45,17,"PELLY ISLAND","NORTHWEST TERRITORIES",33
"CA002203342",1995,2025,"NT",61.9667,-127.2167,618,"RABBIT KETTLE","NORTHWEST TERRITORIES",31
"CA002203359",1995,2025,"NT",64.1167,-117.3333,223,"RAE LAKES","NORTHWEST TERRITORIES",31
"CA002203914",1995,2025,"NT",69.4333,-133.0167,5,"TUKTOYAKTUK","NORTHWEST TERRITORIES",31
"CA002203918",1998,2025,"NT",69.2,-122.3667,552,"TUKTUT NOGAIT","NORTHWEST TERRITORIES",28
"CA002204101",2013,2024,"NT",62.4667,-114.4333,206,"YELLOWKNIFE A","NORTHWEST TERRITORIES",12
"CA002204300",1957,2025,"NT",61.25,-123.75,204,"YOHIN","NORTHWEST TERRITORIES",69
"CA00220B68C",1992,2023,"NT",69.6,-130.9167,102,"LIVERPOOL BAY","NORTHWEST TERRITORIES",32
"CA00220B6Q3",1993,2025,"NT",67.1833,-130.2333,63,"LITTLE CHICAGO","NORTHWEST TERRITORIES",33
"CA00220CQHR",1994,2025,"NT",60.4333,-121.2333,498,"TROUT LAKE","NORTHWEST TERRITORIES",32
"CA00220LQJJ",1993,2024,"NT",68.9167,-133.95,261,"STORM HILLS","NORTHWEST TERRITORIES",32
"CA00220N003",1998,2025,"NT",61.1333,-122.85,183,"LINDBURG LANDING","NORTHWEST TERRITORIES",28
"CA00220N004",1998,2023,"NT",63.6,-113.8667,373,"LOWER CARP LAKE","NORTHWEST TERRITORIES",26
"CA00220N005",1998,2025,"NT",68.75,-133.5,85,"TRAIL VALLEY","NORTHWEST TERRITORIES",28
"CA002300427",2012,2025,"NU",61.1,-94.0667,10,"ARVIAT","NUNAVUT",14
"CA002300500",1946,2025,"NU",64.3,-96.0833,19,"BAKER LAKE A","NUNAVUT",80
"CA002300501",2004,2025,"NU",64.3167,-96,51,"BAKER LAKE CLIMATE","NUNAVUT",22
"CA002300551",1957,2025,"NU",66.8333,-108.0167,5,"BATHURST INLET","NUNAVUT",69
"CA002300902",1957,2025,"NU",67.8167,-115.15,23,"KUGLUKTUK A","NUNAVUT",69
"CA002300904",2004,2025,"NU",67.8167,-115.1333,23,"KUGLUKTUK CLIMATE","NUNAVUT",22
"CA002301000",1933,2025,"NU",64.2,-83.3667,62,"CORAL HARBOUR A","NUNAVUT",93
"CA002301102",1957,2025,"NU",61.1333,-100.8833,353,"ENNADAI LAKE (AUT)","NUNAVUT",69
"CA002301153",2004,2025,"NU",61.1,-94.0667,10,"ARVIAT CLIMATE","NUNAVUT",22
"CA002302337",2013,2025,"NU",68.6333,-95.85,47,"GJOA HAVEN","NUNAVUT",13
"CA002302340",2003,2025,"NU",68.6333,-95.85,42,"GJOA HAVEN CLIMATE","NUNAVUT",23
"CA002302370",1959,2023,"NU",68.3167,-100.0833,36,"HAT ISLAND","NUNAVUT",65
"CA002303093",1993,2023,"NU",68.4333,-89.7333,328,"CAM FOUR","NUNAVUT",31
"CA002303094",2004,2025,"NU",68.5333,-89.8,16,"KUGAARUK CLIMATE","NUNAVUT",22
"CA002303610",1980,2025,"NU",65.1,-102.4333,244,"ROBERTSON LAKE (AUT)","NUNAVUT",46
"CA002303685",1957,2023,"NU",68.8167,-93.4333,43,"SHEPHERD BAY A","NUNAVUT",67
"CA00230N002",1997,2025,"NU",65.75,-111.25,488,"LUPIN CS","NUNAVUT",29
"CA002400305",2004,2025,"NU",82.5,-62.3333,65,"ALERT CLIMATE","NUNAVUT",22
"CA002400404",1999,2025,"NU",73,-85.0167,10,"ARCTIC BAY CS","NUNAVUT",27
"CA002400565",1959,2023,"NU",63.3333,-64.15,376,"BREVOORT ISLAND","NUNAVUT",65
"CA002400570",1957,2023,"NU",67.5333,-63.7833,584,"FOX FIVE","NUNAVUT",67
"CA002400573",2005,2025,"NU",67.55,-64.0333,6,"QIKIQTARJUAQ CLIMATE","NUNAVUT",21
"CA002400577",2004,2024,"NU",67.55,-64.0333,6,"QIKIQTARJUAQ","NUNAVUT",21
"CA002400600",1929,2025,"NU",69.1,-105.1333,31,"CAMBRIDGE BAY A","NUNAVUT",97
"CA002400602",2002,2025,"NU",69.1,-105.1333,19,"CAMBRIDGE BAY GSN","NUNAVUT",24
"CA002400635",1963,2025,"NU",64.2333,-76.5333,48,"CAPE DORSET A","NUNAVUT",63
"CA002400636",2005,2025,"NU",64.2333,-76.5333,50,"CAPE DORSET CLIMATE","NUNAVUT",21
"CA002400637",2012,2024,"NU",64.2333,-76.5333,48,"CAPE DORSET","NUNAVUT",13
"CA002400650",1958,2023,"NU",66.65,-61.3833,725,"CAPE DYER","NUNAVUT",66
"CA002400654",1958,2023,"NU",66.5833,-61.6167,393,"CAPE DYER A","NUNAVUT",66
"CA002400697",1993,2023,"NU",69.0333,-107.8167,165,"CAPE PEEL WEST","NUNAVUT",31
"CA002400802",2004,2025,"NU",70.4833,-68.5167,27,"CLYDE RIVER CLIMATE","NUNAVUT",22
"CA002400804",1977,2025,"NU",70.4833,-68.5167,27,"CLYDE RIVER","NUNAVUT",49
"CA002401030",1958,2023,"NU",68.65,-71.1667,527,"DEWAR LAKES","NUNAVUT",66
"CA002401200",1947,2025,"NU",79.9833,-85.9333,10,"EUREKA","NUNAVUT",79
"CA002402051",2012,2025,"NU",72.0167,-94.2,10,"FORT ROSS","NUNAVUT",14
"CA002402332",2011,2025,"NU",70.6333,-100.2667,20,"GATESHEAD ISLAND","NUNAVUT",15
"CA002402351",2007,2025,"NU",76.4167,-82.9,45,"GRISE FIORD CLIMATE","NUNAVUT",19
"CA002402353",2004,2025,"NU",68.7833,-81.25,8,"HALL BEACH CLIMATE","NUNAVUT",22
"CA002402354",2012,2024,"NU",68.7833,-81.25,9,"HALL BEACH","NUNAVUT",13
"CA002402592",2004,2025,"NU",63.75,-68.55,34,"IQALUIT CLIMATE","NUNAVUT",22
"CA002402604",1957,2025,"NU",78.8,-103.55,58,"ISACHSEN (AUT)","NUNAVUT",69
"CA002402684",1957,2023,"NU",68.9,-75.1333,161,"LONGSTAFF BLUFF","NUNAVUT",67
"CA002403049",1977,2025,"NU",66.15,-65.7167,23,"PANGNIRTUNG","NUNAVUT",49
"CA002403204",2005,2025,"NU",72.7,-77.95,65,"POND INLET CLIMATE","NUNAVUT",21
"CA002403206",1977,2025,"NU",72.6833,-77.9667,62,"POND INLET","NUNAVUT",49
"CA002403450",1969,2025,"NU",75.3833,-105.7167,15,"REA POINT","NUNAVUT",57
"CA002403500",1947,2025,"NU",74.7167,-94.9667,68,"RESOLUTE CARS","NUNAVUT",79
"CA002403505",2002,2025,"NU",74.7167,-94.9833,30,"RESOLUTE CS","NUNAVUT",24
"CA002403625",1957,2023,"NU",69.0833,-79.0333,41,"ROWLEY ISLAND","NUNAVUT",67
"CA002403756",2002,2025,"NU",73.7667,-105.3,11,"STEFANSSON ISLAND","NUNAVUT",24
"CA002403833",2012,2025,"NU",81.1667,-91.8167,72,"SVARTEVAEG","NUNAVUT",14
"CA002403945",1999,2025,"NU",65.8833,-89.45,18,"WAGER BAY (AUT)","NUNAVUT",27
"CA002500440",1996,2025,"NT",74.1333,-119.9833,32,"AULAVIK NATIONAL PARK","NORTHWEST TERRITORIES",30
"CA002502505",2000,2025,"NT",70.7667,-117.8,30,"HOLMAN CS","NORTHWEST TERRITORIES",26
"CA002503648",1994,2025,"NT",72,-125.25,88,"SACHS HARBOUR CLIMATE","NORTHWEST TERRITORIES",32
"CA002503886",1997,2025,"NT",73.2333,-119.5333,42,"THOMSEN RIVER","NORTHWEST TERRITORIES",29
"CA00250M001",1997,2025,"NT",76.2333,-119.35,2,"MOULD BAY CS","NORTHWEST TERRITORIES",29
"CA003010010",2002,2024,"AB",54.2833,-112.9667,664,"ABEE AGDM","ALBERTA",23
"CA003010060",2007,2024,"AB",53.1167,-111.1833,658,"ALBERT HALL AGCM","ALBERTA",18
"CA003010162",2007,2024,"AB",52.3167,-111.7833,737,"ALLIANCE AGCM","ALBERTA",18
"CA003010237",2002,2024,"AB",53.9167,-112.2833,625,"ANDREW AGDM","ALBERTA",23
"CA003010650",2007,2024,"AB",52.5833,-111.4667,721,"BELLSHILL AGCM","ALBERTA",18
"CA003010730",2002,2024,"AB",52.1167,-110.1,687,"BODO AGDM","ALBERTA",23
"CA003010815",1974,2023,"AB",53.1667,-114.4833,843,"BRETON","ALBERTA",50
"CA003010816",2001,2024,"AB",53.0833,-114.4333,852,"BRETON PLOTS","ALBERTA",24
"CA003010979",2008,2024,"AB",53.9333,-113.9167,714,"BUSBY AGCM","ALBERTA",17
"CA003010992",2007,2024,"AB",52.3333,-110.5167,690,"CADOGAN AGCM","ALBERTA",18
"CA003011120",1915,2023,"AB",53.2833,-113.8667,720,"CALMAR","ALBERTA",109
"CA003011240",1946,2025,"AB",53.0333,-112.8167,739,"CAMROSE","ALBERTA",80
"CA003011815",2002,2024,"AB",51.9333,-110.7167,772,"CONSORT AGDM","ALBERTA",23
"CA003011887",1996,2025,"AB",52.0667,-111.45,791,"CORONATION CLIMATE","ALBERTA",30
"CA003011892",2008,2024,"AB",52.7333,-113.9,855,"CRESTOMERE AGCM","ALBERTA",17
"CA003011953",1974,2024,"AB",52.75,-113.95,865,"DAKOTA WEST","ALBERTA",51
"CA003012050",2007,2024,"AB",52.1833,-113.1833,889,"DELBURNE AGCM","ALBERTA",18
"CA003012073",2007,2024,"AB",53.6667,-110.5833,616,"DEWBERRY AGCM","ALBERTA",18
"CA003012192",2007,2024,"AB",52.7833,-110.4333,649,"EDGERTON AGCM","ALBERTA",18
"CA003012206",1999,2025,"AB",53.3,-113.6,715,"EDMONTON INTERNATIONAL CS","ALBERTA",27
"CA003012209",1996,2025,"AB",53.5667,-113.5167,671,"EDMONTON MUNICIPAL CR10","ALBERTA",30
"CA003012216",2012,2024,"AB",53.3167,-113.5833,723,"EDMONTON INTL A","ALBERTA",13
"CA00301222F",1966,2024,"AB",53.55,-114.1167,766,"EDMONTON STONY PLAIN","ALBERTA",59
"CA003012275",1981,2025,"AB",53.6833,-112.8667,716,"ELK ISLAND NAT PARK","ALBERTA",45
"CA003012515",1981,2024,"AB",52.9667,-111,698,"FABYAN","ALBERTA",44
"CA003012590",2007,2024,"AB",52.75,-112.85,795,"FERINTOSH AGCM","ALBERTA",18
"CA003012652",1967,2023,"AB",52.4667,-112.1167,663,"FORESTBURG PLANT SITE","ALBERTA",57
"CA003012653",2007,2024,"AB",52.55,-112.1167,721,"FORESTBURG AGCM","ALBERTA",18
"CA003012790",2007,2024,"AB",53.0667,-110.6167,647,"GILT EDGE NORTH AGCM","ALBERTA",18
"CA003012818",2008,2024,"AB",53.8333,-114.5333,670,"GLENEVIS AGCM","ALBERTA",17
"CA003012999",2007,2024,"AB",52.1167,-112.1667,843,"HALKIRK AGCM","ALBERTA",18
"CA003013140",2007,2024,"AB",51.7833,-111.2167,780,"HEMARUKA AGCM","ALBERTA",18
"CA003013340",2002,2024,"AB",53.1833,-112.25,688,"HOLDEN AGDM","ALBERTA",23
"CA003013362",2007,2024,"AB",52.5833,-110.7833,703,"HUGHENDEN AGCM","ALBERTA",18
"CA003013640",2002,2024,"AB",52.85,-111.8667,675,"KILLAM AGDM","ALBERTA",23
"CA003013644",2007,2024,"AB",52.2833,-111.1167,720,"KESSLER AGCM","ALBERTA",18
"CA003013660",2007,2024,"AB",53.35,-110.4167,664,"KITSCOTY AGCM","ALBERTA",18
"CA003013790",2008,2024,"AB",54,-113.4667,680,"LEGAL AGCM","ALBERTA",17
"CA003013921",2005,2024,"AB",53.95,-110.5833,630,"LINDBERGH AGDM","ALBERTA",20
"CA003013959",2009,2025,"AB",53.3167,-110.0667,669,"LLOYDMINSTER","ALBERTA",17
"CA003013961",1982,2024,"AB",53.3167,-110.0667,668,"LLOYDMINSTER A","ALBERTA",43
"CA003014195",2007,2024,"AB",53.45,-111.25,656,"MANNVILLE AGCM","ALBERTA",18
"CA003014665",2003,2024,"AB",53.5667,-112.3,683,"MUNDARE AGDM","ALBERTA",22
"CA003014795",2007,2024,"AB",53.2667,-113.1667,765,"NEW SEREPTA AGCM","ALBERTA",18
"CA003014921",2003,2024,"AB",53.65,-113.35,665,"OLIVER AGDM","ALBERTA",22
"CA003015346",2008,2024,"AB",54,-112.8833,625,"RADWAY AGCM","ALBERTA",17
"CA003015480",2007,2024,"AB",52.5833,-110.35,644,"RIBSTONE SOUTH AGCM","ALBERTA",18
"CA003015501",2007,2024,"AB",53.0167,-110.1,669,"RIVERCOURSE AGCM","ALBERTA",18
"CA003015523",1992,2025,"AB",52.4167,-114.9167,988,"ROCKY MTN HOUSE (AUT)","ALBERTA",34
"CA003015600",2007,2024,"AB",52.7833,-112.4333,712,"ROSALIND AGCM","ALBERTA",18
"CA003015673",2008,2024,"AB",54.2833,-111.45,619,"ST. LINA AGCM","ALBERTA",17
"CA003015676",2002,2024,"AB",54.0167,-111.2667,649,"ST. PAUL AGCM","ALBERTA",23
"CA003015797",2007,2024,"AB",51.5833,-110.75,755,"SEDALIA AGCM","ALBERTA",18
"CA003015900",2007,2024,"AB",53.3333,-112.5333,679,"SHONTS AGCM","ALBERTA",18
"CA003016022",2002,2024,"AB",54.2833,-112.5,680,"SMOKY LAKE AGDM","ALBERTA",23
"CA003016070",2007,2024,"AB",51.8167,-111.6833,804,"SPONDIN AGCM","ALBERTA",18
"CA003016124",2003,2024,"AB",52.35,-112.6,795,"STETTLER AGDM","ALBERTA",22
"CA003016441",2007,2024,"AB",53.2167,-113.9,754,"THORSBY AGCM","ALBERTA",18
"CA003016505",2005,2024,"AB",53.4333,-114.7167,814,"TOMAHAWK AGDM","ALBERTA",20
"CA003016593",2007,2024,"AB",53.6667,-110.0833,596,"TULLIBY LAKE AGCM","ALBERTA",18
"CA003016655",2003,2024,"AB",53.6333,-111.6833,678,"TWO HILLS AGDM","ALBERTA",22
"CA003016802",2002,2024,"AB",53.35,-110.8833,623,"VERMILION AGDM","ALBERTA",23
"CA003016841",2007,2024,"AB",53.1833,-111.7333,711,"VIKING AGCM","ALBERTA",18
"CA003016852",2008,2023,"AB",54.1333,-111.9167,645,"VILNA AGCM","ALBERTA",16
"CA003016GF0",1980,2025,"AB",53.5,-112.1,639,"VEGREVILLE","ALBERTA",46
"CA003017282",2007,2024,"AB",52.9833,-113.45,774,"WETASKIWIN AGCM","ALBERTA",18
"CA00301A001",1997,2024,"AB",53.55,-114.1167,766,"EDMONTON STONY PLAIN CS","ALBERTA",28
"CA00301B460",1993,2025,"AB",51.6667,-110.2,707,"ESTHER 1","ALBERTA",33
"CA00301S001",1995,2025,"AB",52.8333,-111.1,686,"WAINWRIGHT CFB AIRFIELD 21","ALBERTA",31
"CA003020035",2009,2024,"AB",51.0667,-110.3167,735,"ACADIA VALLEY","ALBERTA",16
"CA003020405",2009,2024,"AB",50.8167,-111,795,"ATLEE AGCM","ALBERTA",16
"CA003020610",2007,2024,"AB",51.3833,-113.35,896,"BEISEKER AGCM","ALBERTA",18
"CA003020679",2007,2024,"AB",52,-112.8,870,"BIG VALLEY AGCM","ALBERTA",18
"CA003021912",2007,2024,"AB",51.7833,-112.25,845,"CRAIGMYLE AGCM","ALBERTA",18
"CA0030221LG",1995,2025,"AB",51.45,-112.6833,678,"DRUMHELLER EAST","ALBERTA",31
"CA003023200",2008,2024,"AB",52.3167,-114.4833,965,"HESPERO AGCM","ALBERTA",17
"CA003023402",2001,2024,"AB",51.1833,-112.5,971,"HUSSAR AGDM","ALBERTA",24
"CA003023722",1993,2025,"AB",52.45,-113.75,860,"LACOMBE CDA 2","ALBERTA",33
"CA003023740",2005,2024,"AB",52.55,-114.4667,947,"LEEDALE AGDM","ALBERTA",20
"CA003023850",2007,2024,"AB",51.6167,-113.65,914,"LINDEN AGCM","ALBERTA",18
"CA003024668",2002,2024,"AB",51.6667,-112.6833,836,"MORRIN AGDM","ALBERTA",23
"CA003024925",2002,2024,"AB",51.7667,-114.0833,1046,"OLDS AGDM","ALBERTA",23
"CA003024965",2002,2024,"AB",51.3833,-110.35,767,"OYEN AGDM","ALBERTA",23
"CA003025243",2002,2024,"AB",51.1333,-111.7,750,"POLLOCKVILLE AGDM","ALBERTA",23
"CA003025297",2003,2024,"AB",52.4333,-113.6,965,"PRENTISS","ALBERTA",22
"CA003025768",2002,2024,"AB",50.3,-110.0833,800,"SCHULER AGDM","ALBERTA",23
"CA003026479",1993,2024,"AB",51.7667,-113.2,857,"THREE HILLS","ALBERTA",32
"CA003026KNQ",1993,2025,"AB",51.7833,-114.6833,1114,"SUNDRE A","ALBERTA",33
"CA003027582",2007,2024,"AB",51.9333,-113.5833,940,"WIMBORNE AGCM","ALBERTA",18
"CA003030450",2008,2024,"AB",50.5167,-114.0167,1143,"AZURE","ALBERTA",17
"CA003030525",2002,2024,"AB",49.8,-112.3,824,"BARNWELL AGDM","ALBERTA",23
"CA003030529",2007,2024,"AB",50.0333,-113.2167,967,"BARONS AGCM","ALBERTA",18
"CA003030540",2007,2024,"AB",50.9,-112.4667,807,"BASSANO AGCM","ALBERTA",18
"CA003030680",2008,2024,"AB",50.7,-114.15,1156,"BLACK DIAMOND","ALBERTA",17
"CA003030720",2004,2024,"AB",49.5667,-113.05,980,"BLOOD TRIBE AGDM","ALBERTA",21
"CA003030768",1993,2025,"AB",49.7333,-111.45,817,"BOW ISLAND","ALBERTA",33
"CA003030830",2001,2024,"AB",49.6167,-113.8167,1073,"BROCKET AGDM","ALBERTA",24
"CA003030QLP",1988,2025,"AB",50.55,-111.85,747,"BROOKS","ALBERTA",38
"CA003031092",2012,2024,"AB",51.1167,-114.0167,1084,"CALGARY INTL A","ALBERTA",13
"CA003031094",1999,2025,"AB",51.1167,-114.0167,1081,"CALGARY INT'L CS","ALBERTA",27
"CA003031322",1994,2025,"AB",49.2,-113.2833,1136,"CARDSTON","ALBERTA",32
"CA003031402",2012,2025,"AB",49,-113.3833,1354,"CARWAY","ALBERTA",14
"CA003031480",2002,2024,"AB",50.2833,-113.35,1006,"CHAMPION AGDM","ALBERTA",23
"CA003031640",1951,2025,"AB",50,-113.6333,1009,"CLARESHOLM","ALBERTA",75
"CA003031875",1993,2025,"AB",51.0833,-114.2167,1235,"COP UPPER","ALBERTA",33
"CA003032422",2004,2024,"AB",50.1833,-112.4333,801,"ENCHANT AGDM","ALBERTA",21
"CA003032450",2007,2024,"AB",49.55,-111.05,845,"ETZIKOM AGCM","ALBERTA",18
"CA003032550",2004,2024,"AB",49.8,-112.0333,833,"FINCASTLE AGDM","ALBERTA",21
"CA003032642",2002,2024,"AB",49.4833,-111.4833,881,"FOREMOST AGDM","ALBERTA",23
"CA003032683",2007,2024,"AB",49.7833,-113.3833,978,"FORT MACLEOD AGCM","ALBERTA",18
"CA003032801",2008,2024,"AB",50.9333,-112.9333,907,"GLEICHEN AGCM","ALBERTA",17
"CA003032927",2007,2024,"AB",49.8667,-111.7333,783,"GRASSY LAKE","ALBERTA",18
"CA003033498",2004,2023,"AB",49.9,-112.7333,858,"IRON SPRINGS AGDM","ALBERTA",20
"CA003033550",2007,2024,"AB",49.9833,-110.2667,795,"IRVINE AGCM","ALBERTA",18
"CA003033875",2011,2025,"AB",49.6333,-112.8,929,"LETHBRIDGE","ALBERTA",15
"CA003033890",1908,2024,"AB",49.7,-112.7667,910,"LETHBRIDGE CDA","ALBERTA",117
"CA003033897",2004,2024,"AB",49.6833,-112.75,903,"LETHBRIDGE DEMO FARM AGDM","ALBERTA",21
"CA003034479",2010,2025,"AB",50.0167,-110.7167,717,"MEDICINE HAT","ALBERTA",16
"CA003034485",2000,2025,"AB",50.0333,-110.7167,715,"MEDICINE HAT RCS","ALBERTA",26
"CA003034577",2007,2024,"AB",50.6667,-113.35,965,"MOSSLEIGH AGCM","ALBERTA",18
"CA003034795",2005,2024,"AB",51.3667,-114.1,1145,"NEIR AGDM","ALBERTA",20
"CA003035198",2011,2025,"AB",49.5167,-114,1190,"PINCHER CREEK","ALBERTA",15
"CA003035208",1996,2025,"AB",49.5167,-114,1190,"PINCHER CREEK CLIMATE","ALBERTA",30
"CA003035340",1966,2024,"AB",50.6,-112.9833,940,"QUEENSTOWN","ALBERTA",59
"CA003035342",2009,2023,"AB",50.6,-112.8,941,"QUEENSTOWN","ALBERTA",15
"CA003035422",2004,2024,"AB",49.4833,-112.6833,937,"RAYMOND AGDM","ALBERTA",21
"CA003035530",2007,2024,"AB",50.2667,-111.7,645,"ROLLING HILLS AGCM","ALBERTA",18
"CA003035650",2004,2024,"AB",50.8333,-112.05,714,"ROSEMARY AGDM","ALBERTA",21
"CA003035845",2004,2024,"AB",49.9167,-110.9167,766,"SEVEN PERSONS AGDM","ALBERTA",21
"CA003036086",2007,2024,"AB",51.2333,-112.9833,901,"STANDARD AGCM","ALBERTA",18
"CA003036099",1996,2025,"AB",50.1833,-113.8833,1364,"STAVELY AAFC","ALBERTA",30
"CA003036205",2004,2024,"AB",51.0333,-113.2833,967,"STRATHMORE AGDM","ALBERTA",21
"CA003036360",1907,2024,"AB",49.8,-112.1167,811,"TABER","ALBERTA",118
"CA003036500",2007,2024,"AB",50.3,-112.8667,955,"TRAVERS AGCM","ALBERTA",18
"CA003036682",1993,2025,"AB",50.05,-112.1333,779,"VAUXHALL CDA CS","ALBERTA",33
"CA003037675",2002,2024,"AB",49.5,-112.1167,944,"WRENTHAM AGDM","ALBERTA",23
"CA00303M9JM",1990,2024,"AB",50.7333,-113.9667,1081,"OKOTOKS","ALBERTA",35
"CA00303N1G3",1987,2023,"AB",49.8667,-112.7833,901,"PICTURE BUTTE WEST","ALBERTA",37
"CA003042045",2002,2024,"AB",49.05,-112.8167,1310,"DEL BONITA AGDM","ALBERTA",23
"CA003044203",1957,2024,"AB",49.3667,-110.6833,927,"MANYBERRIES AGCM","ALBERTA",68
"CA003044232",2002,2024,"AB",49.1333,-111.65,948,"MASINASIN AGDM","ALBERTA",23
"CA003044533",1994,2025,"AB",49.1333,-112.05,1050,"MILK RIVER","ALBERTA",32
"CA003044923",1994,2025,"AB",49.1167,-110.4667,935,"ONEFOUR CDA","ALBERTA",32
"CA003045000",2007,2024,"AB",49.2167,-111.1333,915,"PAKOWKI LAKE AGCM","ALBERTA",18
"CA003050519",1995,2024,"AB",51.2,-115.55,1397,"BANFF CS","ALBERTA",30
"CA003050520",1887,2025,"AB",51.1833,-115.5667,1384,"BANFF","ALBERTA",139
"CA003050602",2012,2025,"AB",49.4667,-114.1833,1257,"BEAVER MINES","ALBERTA",14
"CA003050778",1993,2025,"AB",51.0833,-115.0667,1298,"BOW VALLEY","ALBERTA",33
"CA003051R4R",1993,2025,"AB",49.6333,-114.4833,1303,"CROWSNEST","ALBERTA",33
"CA003053536",1994,2025,"AB",52.9333,-118.0333,1020,"JASPER WARDEN","ALBERTA",32
"CA003053600",1939,2024,"AB",51.0333,-115.0333,1391,"KANANASKIS","ALBERTA",86
"CA003054843",2000,2025,"AB",52.5,-116.05,1352,"NORDEGG CS","ALBERTA",26
"CA003055119",1998,2025,"AB",50.3667,-114.4167,1415,"PEKISKO","ALBERTA",28
"CA003056214",1994,2025,"AB",49.1333,-113.8167,1289,"WATERTON PARK GATE","ALBERTA",32
"CA00305MGFF",1994,2025,"AB",50.95,-115.1833,2543,"NAKISKA RIDGETOP","ALBERTA",32
"CA003060330",2008,2024,"AB",54.6333,-113.3833,635,"ATHABASCA AGCM","ALBERTA",17
"CA003060406",2002,2024,"AB",54.7833,-112.8333,574,"ATMORE AGDM","ALBERTA",23
"CA003060535",2000,2025,"AB",54.1,-114.45,648,"BARRHEAD CS","ALBERTA",26
"CA003060903",1987,2024,"AB",53.35,-117.8667,1036,"BRULE BLACK CAT","ALBERTA",38
"CA003060L20",1999,2024,"AB",54.7167,-113.2833,515,"ATHABASCA 1","ALBERTA",26
"CA003062239",2010,2025,"AB",53.5833,-116.4667,927,"EDSON","ALBERTA",16
"CA003062246",1996,2025,"AB",53.5833,-116.45,927,"EDSON CLIMATE","ALBERTA",30
"CA003062451",1987,2024,"AB",53.6,-114.9833,780,"ENTWISTLE","ALBERTA",38
"CA003062660",2008,2024,"AB",54.4167,-114.7667,676,"FORT ASSINIBOINE AGCM","ALBERTA",17
"CA003062696",1996,2025,"AB",56.65,-111.2167,369,"FORT MCMURRAY CS","ALBERTA",30
"CA003062697",2011,2025,"AB",56.65,-111.2167,369,"FORT MCMURRAY","ALBERTA",15
"CA003063135",1995,2024,"AB",53.8,-118.45,1448,"HENDRICKSON CREEK","ALBERTA",30
"CA003063165",2002,2024,"AB",55.4,-116.4833,602,"HIGH PRAIRIE AGDM","ALBERTA",23
"CA003063686",2001,2025,"AB",54.7667,-112.0167,567,"LAC LA BICHE CLIMATE","ALBERTA",25
"CA003064528",1993,2025,"AB",57.0333,-111.5667,310,"MILDRED LAKE","ALBERTA",33
"CA003065475",2001,2024,"AB",54.5,-111.7,585,"RICH LAKE AGDM","ALBERTA",24
"CA003065995",2011,2025,"AB",55.3,-114.7833,583,"SLAVE LAKE","ALBERTA",15
"CA003065997",2012,2025,"AB",55.3,-114.7833,583,"SLAVE LAKE RCS","ALBERTA",14
"CA003066367",2008,2024,"AB",54.3,-113.5167,611,"TAWATINAW AGCM","ALBERTA",17
"CA00306A009",2000,2024,"AB",53.4,-117.5333,1011,"HINTON VALLEY","ALBERTA",25
"CA00306GE70",1993,2025,"AB",53.3833,-118.35,1402,"WILLOW CREEK 1","ALBERTA",33
"CA003070600",2001,2025,"AB",55.2,-119.4,745,"BEAVERLODGE RCS","ALBERTA",25
"CA003070800",2008,2024,"AB",56.1167,-117.8833,748,"BROWNVALE AGCM","ALBERTA",17
"CA003072151",2008,2024,"AB",55.8,-117.8833,563,"EAGLESHAM AGCM","ALBERTA",17
"CA003072246",2001,2025,"AB",58.9833,-110.4333,215,"EGG ISLAND","ALBERTA",25
"CA003072525",2002,2024,"AB",56.0833,-118.4333,655,"FAIRVIEW AGDM","ALBERTA",23
"CA003072655",2011,2025,"AB",58.7667,-111.1167,238,"FORT CHIPEWYAN","ALBERTA",15
"CA003072659",2012,2024,"AB",58.7667,-111.1167,238,"FORT CHIPEWYAN RCS","ALBERTA",13
"CA003072723",2000,2025,"AB",58.3833,-116.0333,289,"FORT VERMILION","ALBERTA",26
"CA003073071",2008,2024,"AB",57.2667,-117.3,455,"HAWK HILLS AGCM","ALBERTA",17
"CA003073140",1977,2025,"AB",58.6167,-117.1667,338,"HIGH LEVEL","ALBERTA",49
"CA003073535",2008,2024,"AB",55.9167,-117.1167,638,"JEAN COTE AGCM","ALBERTA",17
"CA003073730",2008,2024,"AB",58.1667,-116.35,323,"LA CRETE AGCM","ALBERTA",17
"CA003073740",2008,2024,"AB",55.4167,-119.25,760,"LA GLACE AGCM","ALBERTA",17
"CA003074190",2002,2024,"AB",56.9667,-117.45,457,"MANNING AGDM","ALBERTA",23
"CA003074935",2003,2024,"AB",56.3167,-119.75,630,"CLEARDALE AGDM","ALBERTA",22
"CA003075160",2002,2024,"AB",55.6167,-118.3,621,"PEORIA AGDM","ALBERTA",23
"CA003075488",1994,2025,"AB",56.55,-115.2833,546,"RED EARTH","ALBERTA",32
"CA003075601",2008,2024,"AB",55.7833,-118.6667,575,"RYCROFT AGCM","ALBERTA",17
"CA003075770",2008,2024,"AB",56.0833,-119.35,703,"SAVANNA AGCM","ALBERTA",17
"CA003076366",2008,2024,"AB",55.35,-118.4,670,"TEEPEE CREEK AGCM","ALBERTA",17
"CA003076680",2002,2024,"AB",55.1,-117.2,698,"VALLEYVIEW AGDM","ALBERTA",23
"CA00307KPFP",1993,2025,"AB",58.7167,-113.8667,241,"GARDEN RIVER","ALBERTA",33
"CA003081680",1952,2025,"AB",54.4167,-110.2833,541,"COLD LAKE A","ALBERTA",74
"CA003081690",2008,2024,"AB",54.3667,-110.8667,556,"DUPRE AGCM","ALBERTA",17
"CA004010811",2005,2025,"SK",50.2,-104.7167,580,"BRATT'S LAKE CLIMATE","SASKATCHEWAN",21
"CA004010879",1965,2025,"SK",50.3667,-102.5667,600,"BROADVIEW","SASKATCHEWAN",61
"CA004010984",1965,2023,"SK",50.55,-105.3833,588,"BUFFALO POUND LAKE","SASKATCHEWAN",59
"CA004012300",1963,2024,"SK",51.1833,-104.8667,584,"DUVAL","SASKATCHEWAN",62
"CA004012400",1944,2025,"SK",49.2167,-102.9667,581,"ESTEVAN A","SASKATCHEWAN",82
"CA004012410",2011,2025,"SK",49.2167,-102.9667,581,"ESTEVAN","SASKATCHEWAN",15
"CA004013480",1889,2025,"SK",50.55,-103.65,579,"INDIAN HEAD CDA","SASKATCHEWAN",137
"CA004013660",1956,2024,"SK",51.25,-103.75,676,"KELLIHER","SASKATCHEWAN",69
"CA004014040",1950,2024,"SK",50.2,-102.7333,671,"KIPLING","SASKATCHEWAN",75
"CA004014156",1975,2025,"SK",51.4167,-105.25,497,"LAST MOUNTAIN CS","SASKATCHEWAN",51
"CA004014322",1980,2024,"SK",52,-104.6333,535,"LEROY","SASKATCHEWAN",45
"CA004014481",1979,2024,"SK",51.15,-103.8833,640,"LIPTON 2","SASKATCHEWAN",46
"CA004015322",1998,2025,"SK",50.3333,-105.5333,577,"MOOSE JAW CS","SASKATCHEWAN",28
"CA004015440",1904,2023,"SK",52.3333,-105,580,"MUENSTER","SASKATCHEWAN",120
"CA004015800",1949,2024,"SK",49.3167,-102.1167,576,"OXBOW","SASKATCHEWAN",76
"CA004015870",1979,2024,"SK",51.4,-103.2667,637,"PARKERVIEW","SASKATCHEWAN",46
"CA004016322",1977,2024,"SK",50.5667,-103.9833,663,"QU'APPELLE 1","SASKATCHEWAN",48
"CA004016699",1999,2024,"SK",50.4333,-104.6667,577,"REGINA RCS","SASKATCHEWAN",26
"CA004018642",1992,2025,"SK",51.6667,-105.4,526,"WATROUS EAST","SASKATCHEWAN",34
"CA004019073",2011,2024,"SK",51.2667,-102.4667,498,"YORKTON","SASKATCHEWAN",14
"CA004019075",2011,2024,"SK",51.2667,-102.4667,498,"YORKTON","SASKATCHEWAN",14
"CA0040190LN",1992,2025,"SK",51.7667,-104.2,560,"WYNYARD (AUT)","SASKATCHEWAN",34
"CA00401HP5R",1992,2025,"SK",49.7,-103.8,589,"WEYBURN","SASKATCHEWAN",34
"CA004020286",1992,2025,"SK",49.7333,-105.95,726,"ASSINIBOIA AIRPORT","SASKATCHEWAN",34
"CA004020560",1926,2024,"SK",50.8333,-107.3167,660,"BEECHY","SASKATCHEWAN",99
"CA004022359",1973,2025,"SK",51.1333,-106.5833,595,"ELBOW CS","SASKATCHEWAN",53
"CA004024714",1992,2025,"SK",50.95,-107.15,665,"LUCKY LAKE","SASKATCHEWAN",34
"CA004024919",1992,2025,"SK",49.9,-109.4667,767,"MAPLE CREEK","SASKATCHEWAN",34
"CA004026847",1974,2024,"SK",51.15,-107.2667,725,"ROCK POINT","SASKATCHEWAN",51
"CA004028038",2011,2025,"SK",50.3,-107.6833,817,"SWIFT CURRENT","SASKATCHEWAN",15
"CA004028060",1959,2025,"SK",50.2667,-107.7333,825,"SWIFT CURRENT CDA","SASKATCHEWAN",67
"CA00402DAF0",1992,2025,"SK",50.9167,-109.5,676,"LEADER AIRPORT","SASKATCHEWAN",34
"CA0040318MN",1980,2025,"SK",49.05,-105.4833,756,"CORONACH SPC","SASKATCHEWAN",46
"CA004031999",1992,2025,"SK",49.6333,-109.5167,1271,"CYPRESS HILLS PARK","SASKATCHEWAN",34
"CA004032322",1992,2025,"SK",49.4333,-108.9833,1080,"EASTEND CYPRESS (AUT)","SASKATCHEWAN",34
"CA004034910",1962,2025,"SK",49.1,-107.0167,830,"MANKOTA","SASKATCHEWAN",64
"CA004036844",1970,2025,"SK",49.1667,-105.9833,917,"ROCKGLEN (AUT)","SASKATCHEWAN",56
"CA004038412",1992,2025,"SK",49.0667,-107.5833,796,"VAL MARIE SOUTHEAST","SASKATCHEWAN",34
"CA004041000",1964,2024,"SK",53.45,-109.2,572,"BUTTE ST PIERRE","SASKATCHEWAN",61
"CA004045607",2005,2025,"SK",52.7667,-108.25,548,"NORTH BATTLEFORD RCS","SASKATCHEWAN",21
"CA004046884",1992,2025,"SK",51.5667,-107.9167,586,"ROSETOWN EAST","SASKATCHEWAN",34
"CA004047240",1911,2024,"SK",52.3667,-108.8333,660,"SCOTT CDA","SASKATCHEWAN",114
"CA004047644",1984,2024,"SK",52.3167,-107.7667,716,"SONNINGDALE","SASKATCHEWAN",41
"CA004055079",1992,2025,"SK",52.8167,-104.6,490,"MELFORT","SASKATCHEWAN",34
"CA004055736",1952,2025,"SK",51.4833,-107.05,541,"OUTLOOK PFRA","SASKATCHEWAN",74
"CA004056240",1942,2025,"SK",53.2167,-105.6667,428,"PRINCE ALBERT A","SASKATCHEWAN",84
"CA004057165",2008,2024,"SK",52.1667,-106.7167,504,"SASKATOON RCS","SASKATCHEWAN",17
"CA004060983",1977,2025,"SK",55.8333,-108.4167,440,"BUFFALO NARROWS (AUT)","SASKATCHEWAN",49
"CA004061570",1987,2024,"SK",58.0833,-104.4833,467,"CIGAR LAKE","SASKATCHEWAN",38
"CA004061632",1992,2024,"SK",58.1833,-103.7,490,"COLLINS BAY CAMECO","SASKATCHEWAN",33
"CA004063605",2004,2025,"SK",55.5333,-102.35,297,"ISLAND FALLS (AUT)","SASKATCHEWAN",22
"CA004063753",2011,2025,"SK",57.25,-105.6,514,"KEY LAKE, SK","SASKATCHEWAN",15
"CA004063757",2010,2025,"SK",57.25,-105.6167,514,"KEY LAKE","SASKATCHEWAN",16
"CA004064149",1999,2025,"SK",55.15,-105.2667,379,"LA RONGE RCS","SASKATCHEWAN",27
"CA004064620",2009,2025,"SK",54.0167,-109.1333,546,"LOON LAKE RCS","SASKATCHEWAN",17
"CA004067655",1992,2025,"SK",56.3333,-103.2833,344,"SOUTHEND","SASKATCHEWAN",34
"CA004067723",1992,2025,"SK",53.3667,-107.55,584,"SPIRITWOOD WEST","SASKATCHEWAN",34
"CA004068340",1953,2025,"SK",59.5667,-108.4833,318,"URANIUM CITY A","SASKATCHEWAN",73
"CA004068559",1992,2025,"SK",53.9167,-106.0667,569,"WASKESIU LAKE","SASKATCHEWAN",34
"CA00406N0NM",1996,2025,"SK",54.1333,-108.5167,481,"MEADOW LAKE","SASKATCHEWAN",30
"CA00406QLD0",1992,2024,"SK",59.5667,-108.4833,318,"URANIUM CITY (AUT)","SASKATCHEWAN",33
"CA00407N51G",1996,2025,"SK",53.3333,-104,372,"NIPAWIN","SASKATCHEWAN",30
"CA004083321",1977,2025,"SK",52.8167,-102.3167,358,"HUDSON BAY A","SASKATCHEWAN",49
"CA004083324",2007,2024,"SK",52.8167,-102.3167,358,"HUDSON BAY(AUT)","SASKATCHEWAN",18
"CA005010140",1963,2024,"MB",49.2833,-99.3,450,"BALDUR","MANITOBA",62
"CA005010481",2012,2024,"MB",49.9167,-99.95,409,"BRANDON A","MANITOBA",13
"CA005010490",2012,2024,"MB",49.9,-99.95,409,"BRANDON RCS","MANITOBA",13
"CA005010547",1994,2025,"MB",49.9,-99.35,384,"CARBERRY CS","MANITOBA",32
"CA005010641",2009,2025,"MB",49.5667,-99.0667,374,"CYPRESS RIVER RCS","MANITOBA",17
"CA005010QFQ",1988,2024,"MB",49.9333,-101.2,498,"ELKHORN 2 EAST","MANITOBA",37
"CA005012324",1992,2024,"MB",49.9,-98.2833,273,"PORTAGE SOUTHPORT","MANITOBA",33
"CA005012469",1996,2025,"MB",51.1833,-101.3667,540,"ROBLIN","MANITOBA",30
"CA005012654",1993,2025,"MB",50.45,-100.6,561,"SHOAL LAKE CS","MANITOBA",33
"CA005012961",2008,2024,"MB",49.8333,-100.9333,440,"VIRDEN WATER","MANITOBA",17
"CA005013117",1966,2025,"MB",50.65,-99.95,627,"WASAGAMING","MANITOBA",60
"CA00501A7AR",1992,2025,"MB",49.2833,-100.9833,446,"MELITA","MANITOBA",34
"CA005020725",2000,2025,"MB",49.4,-98.3167,341,"DEERWOOD RCS","MANITOBA",26
"CA005020881",2009,2024,"MB",49,-97.2333,242,"EMERSON AUTO","MANITOBA",16
"CA005021220",1955,2025,"MB",49.0333,-97.5667,253,"GRETNA (AUT)","MANITOBA",71
"CA005021695",1969,2024,"MB",50.0167,-97.8,244,"MARQUETTE","MANITOBA",56
"CA005021849",1999,2025,"MB",49.1833,-98.0833,298,"MORDEN CDA CS","MANITOBA",27
"CA005022125",1957,2025,"MB",49.1833,-98.9,470,"PILOT MOUND (AUT)","MANITOBA",69
"CA005022759",1992,2025,"MB",49.0167,-95.6,329,"SPRAGUE","MANITOBA",34
"CA005022791",1972,2024,"MB",50.1167,-97.1667,236,"STONY MOUNTAIN","MANITOBA",53
"CA005023262",1999,2025,"MB",49.8833,-97.1333,230,"WINNIPEG THE FORKS","MANITOBA",27
"CA00502I001",1995,2025,"MB",49.5,-98.0333,268,"CARMAN U OF M CS","MANITOBA",31
"CA00502S001",1996,2025,"MB",49.9167,-97.25,239,"WINNIPEG 'A' CS","MANITOBA",30
"CA005030203",1985,2025,"MB",52.3667,-97.0167,222,"BERENS RIVER CS","MANITOBA",41
"CA005030984",1995,2025,"MB",52.8167,-97.6167,223,"GEORGE ISLAND (AUT)","MANITOBA",31
"CA0050309J6",1992,2025,"MB",51.0833,-97.55,253,"FISHER BRANCH (AUT)","MANITOBA",34
"CA005031041",1999,2025,"MB",50.6333,-96.9833,217,"GIMLI HARBOUR CS","MANITOBA",27
"CA005031042",2006,2025,"MB",50.6333,-97.05,230,"GIMLI CLIMATE","MANITOBA",20
"CA005031201",2005,2025,"MB",50.5167,-95.9833,253,"GREAT FALLS CLIMATE","MANITOBA",21
"CA005031320",1915,2024,"MB",49.6167,-95.2,327,"INDIAN BAY","MANITOBA",110
"CA005031A10",1992,2025,"MB",53.1833,-99.2667,223,"GRAND RAPIDS (AUT)","MANITOBA",34
"CA005032360",1948,2024,"MB",49.85,-95.5333,323,"RENNIE","MANITOBA",77
"CA005032951",1996,2025,"MB",50.7,-96.5667,220,"VICTORIA BEACH (AUT)","MANITOBA",30
"CA00503B1ER",1992,2025,"MB",50.1833,-96.0667,268,"PINAWA","MANITOBA",34
"CA005040681",1995,2025,"MB",51.1,-100.05,305,"DAUPHIN CS","MANITOBA",31
"CA005040689",2010,2025,"MB",51.1,-100.05,305,"DAUPHIN","MANITOBA",16
"CA005040FJ3",1984,2023,"MB",52.0333,-100.65,366,"COWAN","MANITOBA",40
"CA005041685",1989,2024,"MB",52.6667,-101.1,325,"MAFEKING","MANITOBA",36
"CA005043158",1971,2024,"MB",50.7167,-99.5333,351,"MCCREARY","MANITOBA",54
"CA00504K0NM",1994,2025,"MB",50.5,-98.0333,250,"OAKPOINT MARINE","MANITOBA",32
"CA00504K80K",1993,2025,"MB",52.1167,-101.2333,335,"SWAN RIVER RCS","MANITOBA",33
"CA005050919",1996,2025,"MB",54.6833,-101.6833,304,"FLIN FLON","MANITOBA",30
"CA005050920",1927,2024,"MB",54.7667,-101.8833,320,"FLIN FLON","MANITOBA",98
"CA005052880",1943,2025,"MB",53.9667,-101.1,270,"THE PAS A","MANITOBA",83
"CA005052890",2005,2025,"MB",53.9667,-101.1,274,"THE PAS CLIMATE","MANITOBA",21
"CA005060595",2010,2025,"MB",58.7333,-94.0667,29,"CHURCHILL","MANITOBA",16
"CA005060608",2005,2025,"MB",58.7333,-94.0667,29,"CHURCHILL CLIMATE","MANITOBA",21
"CA005060999",1996,2024,"MB",56.3667,-94.7,145,"GILLAM","MANITOBA",29
"CA005061422",2000,2025,"MB",56.0333,-96.5167,183,"KELSEY DAM CS","MANITOBA",26
"CA005061648",1977,2025,"MB",56.8667,-101.0833,357,"LYNN LAKE","MANITOBA",49
"CA005061649",1977,2025,"MB",56.85,-101.0667,354,"LYNN LAKE RCS","MANITOBA",49
"CA005062040",2010,2025,"MB",53.9667,-97.85,224,"NORWAY HOUSE","MANITOBA",16
"CA005062835",2011,2025,"MB",58.7,-98.5167,281,"TADOULE LAKE","MANITOBA",15
"CA005062840",2000,2025,"MB",58.7167,-98.5,262,"TADOULE LAKE CS","MANITOBA",26
"CA005062922",1967,2025,"MB",55.8,-97.8667,223,"THOMPSON A","MANITOBA",59
"CA006010735",2011,2025,"ON",53.8167,-89.9,223,"BIG TROUT LAKE","ONTARIO",15
"CA006010740",2012,2025,"ON",53.8167,-89.9,223,"BIG TROUT LAKE","ONTARIO",14
"CA006012199",1999,2025,"ON",50.6333,-93.2167,363,"EAR FALLS (AUT)","ONTARIO",27
"CA006012501",2013,2024,"ON",56.0167,-87.6833,16,"FORT SEVERN","ONTARIO",12
"CA006014353",1992,2025,"ON",52.2,-87.9333,253,"LANSDOWNE HOUSE (AUT)","ONTARIO",34
"CA006015026",2012,2025,"ON",53.4333,-91.7667,278,"MUSKRAT DAM","ONTARIO",14
"CA006016295",1981,2025,"ON",54.9833,-85.4333,53,"PEAWANUCK (AUT)","ONTARIO",45
"CA006016525",1930,2025,"ON",51.45,-90.2167,391,"PICKLE LAKE (AUT)","ONTARIO",96
"CA006017401",2012,2025,"ON",53.0667,-93.35,290,"SANDY LAKE","ONTARIO",14
"CA006020559",1979,2024,"ON",48.6333,-93.9667,335,"BARWICK","ONTARIO",46
"CA006020LPQ",2000,2025,"ON",48.7667,-91.6333,389,"ATIKOKAN (AUT)","ONTARIO",26
"CA006022474",2007,2025,"ON",48.65,-93.4333,342,"FORT FRANCES RCS","ONTARIO",19
"CA006032125",2010,2025,"ON",49.8333,-92.75,413,"DRYDEN REGIONAL","ONTARIO",16
"CA006034073",2008,2025,"ON",49.7833,-94.3833,413,"KENORA RCS","ONTARIO",18
"CA006034076",2013,2024,"ON",49.7833,-94.3667,410,"KENORA A","ONTARIO",12
"CA006036904",1969,2024,"ON",49.65,-93.7167,358,"RAWSON LAKE","ONTARIO",56
"CA006037775",1938,2025,"ON",50.1167,-91.9,383,"SIOUX LOOKOUT A","ONTARIO",88
"CA006037776",2013,2024,"ON",50.1167,-91.9,383,"SIOUX LOOKOUT A","ONTARIO",12
"CA006040325",1938,2025,"ON",50.3,-88.9,323,"ARMSTRONG (AUT)","ONTARIO",88
"CA006041110",1998,2025,"ON",49.15,-88.35,233,"CAMERON FALLS (AUT)","ONTARIO",28
"CA006041222",1993,2025,"ON",47.3333,-85.8333,187,"CARIBOU ISLAND (AUT)","ONTARIO",33
"CA006042716",1981,2025,"ON",49.7833,-86.9333,348,"GERALDTON A","ONTARIO",45
"CA006046768",2011,2024,"ON",48.6,-86.2833,192,"PUKASKWA (AUT)","ONTARIO",14
"CA006048260",2012,2025,"ON",48.3667,-89.3167,199,"THUNDER BAY","ONTARIO",14
"CA006048268",2003,2025,"ON",48.3667,-89.3333,199,"THUNDER BAY CS","ONTARIO",23
"CA006049095",1973,2025,"ON",49.0333,-90.4667,489,"UPSALA (AUT)","ONTARIO",53
"CA006049443",1967,2025,"ON",48.3667,-89.1167,211,"WELCOME ISLAND (AUT)","ONTARIO",59
"CA006049470",2005,2024,"ON",49.6833,-88.3,261,"LITTLE FLATLAND ISLAND (AUT)","ONTARIO",20
"CA006057591",2012,2024,"ON",46.4833,-84.5167,192,"SAULT STE MARIE A","ONTARIO",13
"CA006065006",1983,2024,"ON",46.2,-82.0167,200,"MASSEY","ONTARIO",42
"CA006068145",1977,2025,"ON",46.6333,-80.8,348,"SUDBURY CLIMATE","ONTARIO",49
"CA006068153",2013,2024,"ON",46.6333,-80.8,348,"SUDBURY A","ONTARIO",12
"CA006070QK6",1990,2024,"ON",49.3833,-82.1167,245,"BONNER LAKE","ONTARIO",35
"CA006072223",2011,2025,"ON",47.7,-79.85,244,"EARLTON","ONTARIO",15
"CA006072230",2008,2025,"ON",47.7,-79.85,243,"EARLTON CLIMATE","ONTARIO",18
"CA006073975",1937,2025,"ON",49.4167,-82.4667,227,"KAPUSKASING A","ONTARIO",89
"CA006073980",2000,2025,"ON",49.4,-82.45,218,"KAPUSKASING CDA ON","ONTARIO",26
"CA006075420",2010,2024,"ON",51.2833,-80.6,9,"MOOSONEE","ONTARIO",15
"CA006075425",1932,2023,"ON",51.2667,-80.65,10,"MOOSONEE UA","ONTARIO",92
"CA006075435",2003,2025,"ON",51.3,-80.6167,9,"MOOSONEE RCS","ONTARIO",23
"CA006075543",1982,2025,"ON",49.75,-84.1667,264,"NAGAGAMI (AUT)","ONTARIO",44
"CA006078282",2008,2025,"ON",48.55,-81.3833,294,"TIMMINS CLIMATE","ONTARIO",18
"CA006078286",2012,2024,"ON",48.5667,-81.3833,295,"TIMMINS A","ONTARIO",13
"CA006080192",2004,2025,"ON",45.5333,-78.2667,397,"ALGONQUIN PARK EAST GATE","ONTARIO",22
"CA006085700",1939,2025,"ON",46.3667,-79.4167,370,"NORTH BAY A","ONTARIO",87
"CA006092920",2010,2025,"ON",45.8833,-82.5667,189,"GORE BAY CLIMATE","ONTARIO",16
"CA006100285",1992,2024,"ON",45.1833,-76.1167,133,"APPLETON","ONTARIO",33
"CA006100970",2008,2025,"ON",44.6333,-75.75,120,"BROCKVILLE CLIMATE","ONTARIO",18
"CA006100971",1965,2023,"ON",44.6,-75.6667,96,"BROCKVILLE PCC","ONTARIO",59
"CA006101335",1960,2024,"ON",46.05,-77.3667,122,"CHALK RIVER AECL","ONTARIO",65
"CA006101874",1950,2024,"ON",45.0167,-74.75,64,"CORNWALL","ONTARIO",75
"CA006102J13",1984,2024,"ON",45.0333,-76.25,145,"DRUMMOND CENTRE","ONTARIO",41
"CA006103024",1994,2025,"ON",44.4167,-75.85,82,"GRENADIER ISLAND","ONTARIO",32
"CA006103367",1967,2024,"ON",44.4333,-76.6833,160,"HARTINGTON IHD","ONTARIO",58
"CA006104027",1997,2025,"ON",45,-75.6333,99,"KEMPTVILLE CS","ONTARIO",29
"CA006104142",2008,2024,"ON",44.2167,-76.6,93,"KINGSTON CLIMATE","ONTARIO",17
"CA006105397",2003,2024,"ON",45.25,-74.9667,85,"MOOSE CREEK","ONTARIO",22
"CA006105762",1994,2024,"ON",45.05,-76.7833,276,"OMPAH-SEITZ","ONTARIO",31
"CA006105976",1889,2024,"ON",45.3833,-75.7167,79,"OTTAWA CDA","ONTARIO",136
"CA006105978",2000,2025,"ON",45.3833,-75.7167,79,"OTTAWA CDA RCS","ONTARIO",26
"CA006106001",2011,2024,"ON",45.3167,-75.6667,114,"OTTAWA INT'L","ONTARIO",14
"CA006106367",2010,2025,"ON",45.8667,-77.25,161,"PEMBROKE CLIMATE","ONTARIO",16
"CA006107276",1986,2024,"ON",45.2833,-75.0667,80,"ST. ALBERT","ONTARIO",39
"CA00610FC98",1993,2024,"ON",45.8833,-77.25,153,"PETAWAWA HOFFMAN","ONTARIO",32
"CA006110480",2004,2024,"ON",44.2667,-79.3167,229,"BALDWIN","ONTARIO",21
"CA006110556",2011,2024,"ON",44.3833,-79.7333,305,"BARRIE LANDFILL","ONTARIO",14
"CA006110607",2005,2025,"ON",45.1333,-79.4,297,"BEATRICE CLIMATE","ONTARIO",21
"CA006111769",1971,2024,"ON",44.6333,-79.5333,285,"COLDWATER WARMINSTER","ONTARIO",54
"CA006111792",1994,2023,"ON",44.5,-80.2167,180,"COLLINGWOOD","ONTARIO",30
"CA006114295",1995,2025,"ON",44.55,-79.2167,221,"LAGOON CITY","ONTARIO",31
"CA006114979",2004,2024,"ON",44.2667,-80.7167,411,"MARKDALE","ONTARIO",21
"CA006115811",1992,2024,"ON",44.6,-79.4333,250,"ORILLIA BRAIN","ONTARIO",33
"CA006116257",2002,2025,"ON",45.35,-80.05,176,"PARRY SOUND CCG","ONTARIO",24
"CA006117684",1973,2024,"ON",44.4,-79.6333,250,"SHANTY BAY","ONTARIO",52
"CA006117700",2003,2025,"ON",44.4833,-79.55,289,"BARRIE-ORO","ONTARIO",23
"CA006119055",1989,2024,"ON",44.2667,-79.1667,262,"UDORA","ONTARIO",36
"CA006119M51",1995,2025,"ON",45.0333,-80.3667,191,"WESTERN ISLAND (AUT)","ONTARIO",31
"CA00611E001",2000,2025,"ON",44.2333,-79.7833,251,"EGBERT CS","ONTARIO",26
"CA006122847",1981,2025,"ON",43.7667,-81.7167,214,"GODERICH","ONTARIO",45
"CA006127510",2009,2025,"ON",43,-82.3167,181,"SARNIA","ONTARIO",17
"CA006127519",2006,2025,"ON",43,-82.3,181,"SARNIA CLIMATE","ONTARIO",20
"CA006128330",2007,2025,"ON",45.2333,-81.6333,214,"TOBERMORY RCS","ONTARIO",19
"CA006130257",1988,2024,"ON",42.1,-83.1,182,"AMHERSTBURG","ONTARIO",37
"CA006131983",1997,2025,"ON",42.8667,-80.55,232,"DELHI CS","ONTARIO",29
"CA006133055",2005,2024,"ON",43.1833,-79.5667,171,"GRIMSBY MOUNTAIN","ONTARIO",20
"CA006133362",2000,2025,"ON",42.0333,-82.9,191,"HARROW CDA AUTO","ONTARIO",26
"CA006134190",1968,2024,"ON",42.05,-82.6667,200,"KINGSVILLE MOE","ONTARIO",57
"CA006135583",1957,2024,"ON",42.5167,-81.6333,198,"NEW GLASGOW","ONTARIO",68
"CA006136606",1964,2024,"ON",42.8833,-79.25,175,"PORT COLBORNE","ONTARIO",61
"CA006136699",1992,2025,"ON",43.25,-79.2167,79,"PORT WELLER (AUT)","ONTARIO",34
"CA006137154",2003,2024,"ON",42.45,-81.8833,206,"RIDGETOWN RCS","ONTARIO",22
"CA006137362",1980,2024,"ON",42.7667,-81.2,209,"ST THOMAS WPCP","ONTARIO",45
"CA006139148",2002,2024,"ON",43.1833,-79.4,79,"VINELAND STATION RCS","ONTARIO",23
"CA006139449",2005,2025,"ON",42.9667,-79.3333,178,"WELLAND-PELHAM","ONTARIO",21
"CA006139520",1866,2024,"ON",42.3333,-82.9333,188,"WINDSOR RIVERSIDE","ONTARIO",159
"CA00613F606",1992,2023,"ON",42.8667,-79.25,184,"PORT COLBORNE (AUT)","ONTARIO",32
"CA00613P001",1999,2025,"ON",41.95,-82.5167,177,"POINT PELEE CS","ONTARIO",27
"CA006142285",1969,2025,"ON",43.65,-80.4167,376,"ELORA RESEARCH STN","ONTARIO",57
"CA006142286",2003,2024,"ON",43.65,-80.4167,376,"ELORA RCS","ONTARIO",22
"CA006142400",1939,2024,"ON",43.7333,-80.3333,418,"FERGUS SHAND DAM","ONTARIO",86
"CA006142402",1992,2024,"ON",43.7,-80.3833,396,"FERGUS MOE","ONTARIO",33
"CA006142803",1958,2024,"ON",43.6833,-80.7167,400,"GLEN ALLAN","ONTARIO",67
"CA006144239",2010,2025,"ON",43.4667,-80.3833,322,"KITCHENER/WATERLOO","ONTARIO",16
"CA006144473",2012,2024,"ON",43.0333,-81.15,278,"LONDON A","ONTARIO",13
"CA006144478",2002,2025,"ON",43.0333,-81.15,278,"LONDON CS","ONTARIO",24
"CA006145504",1992,2025,"ON",43.9833,-80.75,415,"MOUNT FOREST (AUT)","ONTARIO",34
"CA006147188",1972,2024,"ON",43.35,-80.4667,328,"ROSEVILLE","ONTARIO",53
"CA006148122",1997,2024,"ON",42.9833,-81.65,243,"STRATHROY-MULLIFARRY","ONTARIO",28
"CA006149625",1871,2024,"ON",43.1333,-80.7667,282,"WOODSTOCK","ONTARIO",154
"CA006150689",1866,2024,"ON",44.15,-77.4,76,"BELLEVILLE","ONTARIO",159
"CA006151061",1992,2025,"ON",43.3,-79.8,77,"BURLINGTON PIERS (AUT)","ONTARIO",34
"CA006151309",1985,2024,"ON",44.4,-76.9,150,"CENTREVILLE","ONTARIO",40
"CA006151684",1992,2025,"ON",43.95,-78.1667,78,"COBOURG (AUT)","ONTARIO",34
"CA006151689",1972,2024,"ON",43.9667,-78.1833,79,"COBOURG STP","ONTARIO",53
"CA006152695",1978,2024,"ON",43.6333,-79.8833,221,"GEORGETOWN WWTP","ONTARIO",47
"CA006153193",2011,2024,"ON",43.1667,-79.9333,238,"HAMILTON A","ONTARIO",14
"CA006153301",1997,2025,"ON",43.3,-79.9167,102,"HAMILTON RBG CS","ONTARIO",29
"CA006155750",2007,2023,"ON",43.5167,-79.6833,168,"OAKVILLE TWN","ONTARIO",17
"CA006155875",2010,2024,"ON",43.9167,-78.8833,140,"OSHAWA","ONTARIO",15
"CA006155878",1969,2023,"ON",43.8667,-78.8333,84,"OSHAWA WPCP","ONTARIO",55
"CA006156559",1992,2025,"ON",43.8333,-77.15,79,"POINT PETRE (AUT)","ONTARIO",34
"CA006158355",2002,2025,"ON",43.6667,-79.4,113,"TORONTO CITY","ONTARIO",24
"CA006158731",2013,2024,"ON",43.6767,-79.6306,173.4,"TORONTO INTL A","ONTARIO",12
"CA006158875",1935,2025,"ON",44.1167,-77.5333,86,"TRENTON A","ONTARIO",91
"CA006159123",2012,2024,"ON",44.1,-79.1667,325,"UXBRIDGE WEST","ONTARIO",13
"CA00615S001",1994,2024,"ON",43.7833,-79.4667,187,"TORONTO NORTH YORK","ONTARIO",31
"CA006163171",1987,2023,"ON",45.0333,-78.5333,330,"HALIBURTON 3","ONTARIO",37
"CA006166415",2010,2025,"ON",44.2333,-78.3667,191,"PETERBOROUGH","ONTARIO",16
"CA006166456",2005,2023,"ON",44.35,-78.3,216,"PETERBOROUGH TRENT U","ONTARIO",19
"CA00616I001",1995,2025,"ON",45.0667,-77.8833,331,"BANCROFT AUTO","ONTARIO",31
"CA007010565",1999,2025,"QC",46.8333,-71.2,10,"BEAUPORT","QUEBEC",27
"CA007011947",1966,2024,"QC",45.3167,-74.1667,49,"COTEAU DU LAC","QUEBEC",59
"CA007011982",1971,2023,"QC",46.6667,-71.9167,15,"DESCHAMBAULT","QUEBEC",53
"CA007011983",1997,2025,"QC",46.6833,-71.9667,61,"DESCHAMBAULT","QUEBEC",29
"CA007014160",1930,2025,"QC",45.8167,-73.4333,21,"L'ASSOMPTION","QUEBEC",96
"CA007014290",1913,2024,"QC",45.3,-74.05,47,"LES CEDRES","QUEBEC",112
"CA007014332",1967,2024,"QC",46.2667,-73.0167,45,"LOUISEVILLE","QUEBEC",58
"CA007015730",1937,2024,"QC",45.5,-74.0667,91,"OKA","QUEBEC",88
"CA007015791",1993,2025,"QC",47.5667,-71.2333,791,"L'ETAPE","QUEBEC",33
"CA007016470",1963,2024,"QC",45.5,-74.3667,46,"RIGAUD","QUEBEC",62
"CA007016675",1966,2024,"QC",46.9833,-71.8333,213,"RIVIERE VERTE OUEST","QUEBEC",59
"CA007016800",1949,2024,"QC",46.7167,-72.0833,76,"ST ALBAN","QUEBEC",76
"CA007016816",1963,2024,"QC",46.5333,-73.15,183,"ST ALEXIS DES MONTS","QUEBEC",62
"CA007016840",1949,2024,"QC",46.5833,-72.2333,16,"STE ANNE DE LA PERADE","QUEBEC",76
"CA007016902",1974,2024,"QC",46.2,-73.6,198,"STE BEATRIX","QUEBEC",51
"CA007016960",1976,2024,"QC",46.35,-73.35,168,"ST CHARLES DE MANDEVILLE","QUEBEC",49
"CA007017000",1982,2024,"QC",46.8167,-71.9167,152,"STE CHRISTINE","QUEBEC",43
"CA007018001",1998,2025,"QC",46.5667,-72.7333,110,"SHAWINIGAN","QUEBEC",28
"CA007018562",1993,2025,"QC",46.35,-72.5167,6,"TROIS-RIVIERES","QUEBEC",33
"CA007018563",2013,2025,"QC",46.3667,-72.6833,62,"TROIS-RIVIERES","QUEBEC",13
"CA00701LEEH",1964,2024,"QC",46.8667,-72.4,160,"LAC AUX SABLES","QUEBEC",61
"CA00701LP0N",1996,2025,"QC",46.1833,-72.9167,16,"LAC SAINT-PIERRE","QUEBEC",30
"CA00701Q004",1997,2025,"QC",46.7833,-71.2833,91,"STE-FOY (U. LAVAL)","QUEBEC",29
"CA00701Q009",1999,2025,"QC",46.3,-72.0667,97,"LEMIEUX","QUEBEC",27
"CA00701S001",1992,2024,"QC",46.8,-71.3833,60,"QUEBEC/JEAN LESAGE INTL","QUEBEC",33
"CA007020305",1969,2024,"QC",46.0167,-71.95,140,"ARTHABASKA","QUEBEC",56
"CA007020828",1967,2024,"QC",45.4,-72.2667,297,"BONSECOURS","QUEBEC",58
"CA007020860",1957,2024,"QC",45.4833,-71.95,130,"BROMPTONVILLE","QUEBEC",68
"CA007021840",1949,2024,"QC",45.15,-71.8,259,"COATICOOK","QUEBEC",76
"CA007021954",1880,2024,"QC",45.8167,-71.9833,190,"DANVILLE","QUEBEC",145
"CA007022320",1917,2024,"QC",45.3,-72.9,68,"FARNHAM","QUEBEC",108
"CA007022375",1967,2024,"QC",45.8,-73,31,"FLEURY","QUEBEC",58
"CA007022494",1973,2024,"QC",46.4833,-72.05,53,"FORTIERVILLE","QUEBEC",52
"CA007022579",1993,2025,"QC",45.05,-72.8667,152,"FRELIGHSBURG","QUEBEC",33
"CA007022800",1948,2023,"QC",45.3833,-72.7167,175,"GRANBY","QUEBEC",76
"CA007023075",1960,2024,"QC",45.0667,-73.7167,61,"HEMMINGFORD FOUR WINDS","QUEBEC",65
"CA007024100",1963,2024,"QC",45.3833,-73.4333,30,"LAPRAIRIE","QUEBEC",62
"CA007024250",1963,2024,"QC",46.3333,-71.6667,152,"LAURIERVILLE","QUEBEC",62
"CA007024254",1978,2024,"QC",46.8167,-71.1,69,"LAUZON","QUEBEC",47
"CA007024280",1888,2025,"QC",45.3667,-71.8167,181,"LENNOXVILLE","QUEBEC",138
"CA007024320",1999,2024,"QC",45.6333,-71.3667,267,"LINGWICK","QUEBEC",26
"CA007024440",1949,2024,"QC",45.2667,-72.1167,274,"MAGOG","QUEBEC",76
"CA007024627",1980,2024,"QC",45.4,-73.1333,38,"MARIEVILLE","QUEBEC",45
"CA007024745",1994,2025,"QC",45.5,-73.5833,73,"MCTAVISH","QUEBEC",32
"CA007025251",2013,2024,"QC",45.4706,-73.7408,36,"MONTREAL INTL A","QUEBEC",12
"CA007025442",1993,2025,"QC",46.2333,-72.65,8,"NICOLET","QUEBEC",33
"CA007025745",1963,2024,"QC",45.1167,-74.05,46,"ORMSTOWN","QUEBEC",62
"CA007026043",1980,2024,"QC",46.0833,-72.8333,15,"PIERREVILLE","QUEBEC",45
"CA007026465",1878,2024,"QC",45.6333,-72.1333,123,"RICHMOND","QUEBEC",147
"CA007026612",1973,2024,"QC",45.7,-73.5,9,"RIVIERE DES PRAIRIES","QUEBEC",52
"CA007026836",1960,2024,"QC",45.1333,-74.35,53,"ST ANICET","QUEBEC",65
"CA007026916",1973,2024,"QC",45.0833,-73.3833,49,"ST BERNARD DE LACOLLE","QUEBEC",52
"CA007027039",1993,2025,"QC",45.1667,-73.6833,53,"STE-CLOTHILDE","QUEBEC",33
"CA007027083",1965,2024,"QC",46.05,-70.5167,244,"ST COME DE LINIERE","QUEBEC",60
"CA007027200",1929,2024,"QC",46.0667,-70.9667,312,"ST EPHREM","QUEBEC",96
"CA007027283",1963,2024,"QC",46.15,-70.7,168,"ST GEORGES","QUEBEC",62
"CA007027329",2009,2024,"QC",45.5167,-73.4167,27,"MONTREAL/ST-HUBERT","QUEBEC",16
"CA007027361",1963,2024,"QC",45.5667,-72.9167,33,"ST HYACINTHE 2","QUEBEC",62
"CA007027470",2008,2025,"QC",45.8333,-72.5333,85,"SAINT-GERMAIN-DE-GRANTHAM","QUEBEC",18
"CA007027516",1964,2024,"QC",45.75,-70.6833,335,"ST LUDGER","QUEBEC",61
"CA007027520",1949,2024,"QC",45.2,-71.5,564,"ST MALO D AUCKLAND","QUEBEC",76
"CA007027540",1963,2023,"QC",45.2167,-73.85,38,"STE MARTINE","QUEBEC",61
"CA007027656",1971,2024,"QC",46.25,-71.2167,366,"ST PIERRE DE BROUGHTON","QUEBEC",54
"CA007027660",1963,2024,"QC",46.2167,-70.5,282,"ST PROSPER","QUEBEC",62
"CA007027733",1964,2023,"QC",46.3333,-71.05,442,"ST SEVERIN","QUEBEC",60
"CA007027802",1961,2024,"QC",45.3667,-71.5333,346,"SAWYERVILLE NORD","QUEBEC",64
"CA007027840",1950,2024,"QC",46.5,-71.0833,145,"SCOTT","QUEBEC",75
"CA007028123",2009,2024,"QC",45.4333,-71.6833,241,"SHERBROOKE","QUEBEC",16
"CA007028200",1914,2024,"QC",46.0333,-73.1167,15,"SOREL","QUEBEC",111
"CA007028441",1966,2024,"QC",46.1,-71.35,381,"THETFORD MINES","QUEBEC",59
"CA007028442",2006,2025,"QC",46.05,-71.2667,430,"THETFORD MINES RCS","QUEBEC",20
"CA007028700",1963,2024,"QC",45.7667,-73.3667,21,"VERCHERES","QUEBEC",62
"CA007028754",1994,2025,"QC",46.2,-70.7833,229,"BEAUCEVILLE","QUEBEC",32
"CA00702FHL8",1993,2025,"QC",45.4333,-73.9333,39,"STE-ANNE-DE-BELLEVUE 1","QUEBEC",33
"CA00702FQLF",1994,2025,"QC",45.1167,-74.2833,49,"ST-ANICET 1","QUEBEC",32
"CA00702FR30",1975,2024,"QC",45.6667,-71.7333,268,"ST CAMILLE WOLFE","QUEBEC",50
"CA00702LED4",1994,2025,"QC",45.3,-73.35,44,"L'ACADIE","QUEBEC",32
"CA00702S006",2002,2024,"QC",45.4667,-73.75,32,"MONTREAL/PIERRE ELLIOTT TRUDEA","QUEBEC",23
"CA007030310",1963,2024,"QC",45.95,-74.6167,191,"ARUNDEL","QUEBEC",62
"CA007031315",1980,2024,"QC",45.6833,-76.4333,168,"CHARTERIS","QUEBEC",45
"CA007031360",1927,2024,"QC",45.5167,-75.7833,113,"CHELSEA","QUEBEC",98
"CA007031375",1964,2024,"QC",45.9,-75.0833,223,"CHENEVILLE","QUEBEC",61
"CA007033650",1963,2024,"QC",45.65,-74.3333,91,"LACHUTE","QUEBEC",62
"CA007033939",1976,2024,"QC",46.3667,-74.7667,244,"LA MACAZA","QUEBEC",49
"CA007034365",1980,2024,"QC",45.5333,-76.05,69,"LUSKVILLE","QUEBEC",45
"CA007034482",1993,2025,"QC",46.2667,-76,200,"MANIWAKI AIRPORT","QUEBEC",33
"CA007035666",1979,2024,"QC",45.8,-74.9833,183,"NOTRE DAME DE LA PAIX","QUEBEC",46
"CA007036855",1963,2024,"QC",46.85,-75.3333,262,"STE ANNE DU LAC","QUEBEC",62
"CA007037310",1961,2024,"QC",45.9833,-74,366,"ST HIPPOLYTE","QUEBEC",64
"CA007037400",1932,2024,"QC",45.8,-74.05,170,"ST JEROME","QUEBEC",93
"CA007038975",1967,2024,"QC",46.0667,-76.05,142,"WRIGHT","QUEBEC",58
"CA00703GDKB",1994,2024,"QC",46.0833,-74.55,239,"ST-JOVITE","QUEBEC",31
"CA007040442",2005,2024,"QC",49.1333,-68.2,22,"BAIE-COMEAU A","QUEBEC",20
"CA007040444",2010,2025,"QC",49.1333,-68.2,22,"BAIE-COMEAU","QUEBEC",16
"CA007041100",1963,2025,"QC",50.1667,-60.0667,7,"CAPE WHITTLE","QUEBEC",63
"CA007041166",1994,2025,"QC",48.3667,-70.5333,7,"CAP-ROUGE","QUEBEC",32
"CA007041312",1997,2025,"QC",47.2833,-70.6333,723,"CHARLEVOIX (MRC)","QUEBEC",29
"CA007041382",1992,2025,"QC",50.4667,-59.6333,8,"CHEVERY","QUEBEC",34
"CA007041JG6",1993,2025,"QC",47.0833,-70.7833,6,"CAP-TOURMENTE","QUEBEC",33
"CA007042395",2003,2025,"QC",47.3167,-71.15,673,"FORET MONTMORENCY RCS","QUEBEC",23
"CA007043019",2010,2024,"QC",50.2833,-63.6167,38,"HAVRE ST. PIERRE","QUEBEC",15
"CA007043B79",1994,2025,"QC",50.2167,-64.2,9,"ILE AUX PERROQUETS","QUEBEC",32
"CA007043BP9",1993,2025,"QC",48.0667,-69.55,6,"ILE ROUGE","QUEBEC",33
"CA007044288",1973,2024,"QC",49.1167,-68.3833,15,"LES BUISSONS","QUEBEC",52
"CA007044328",1994,2025,"QC",50.2667,-64.2333,11,"LONGUE-POINTE-DE-MINGAN","QUEBEC",32
"CA007045398",2010,2025,"QC",50.1833,-61.7833,12,"NATASHQUAN","QUEBEC",16
"CA007045401",2008,2025,"QC",50.1833,-61.8,11,"NATASHQUAN A","QUEBEC",18
"CA007046059",1995,2025,"QC",48.1333,-69.7167,7,"POINT DE L'ISLET","QUEBEC",31
"CA00704607C",1994,2025,"QC",48.2667,-70.1167,4,"POINTE CLAVEAU","QUEBEC",32
"CA007047914",2002,2025,"QC",50.2167,-66.25,53,"SEPT-ILES","QUEBEC",24
"CA00704C64L",1993,2025,"QC",51.8667,-63.2833,589,"LAC EON","QUEBEC",33
"CA00704F0PN",1992,2025,"QC",49.3167,-67.3833,6,"POINTE-DES-MONTS","QUEBEC",34
"CA00704FEG0",1965,2024,"QC",50.2833,-64.7833,15,"RIVIERE AU TONNERRE","QUEBEC",60
"CA00704Q003",1997,2025,"QC",50.1667,-66.4333,24,"POINTE NOIRE CS","QUEBEC",29
"CA00704S001",1996,2025,"QC",49.2667,-68.15,130,"BAIE-COMEAU","QUEBEC",30
"CA007051050",1992,2025,"QC",48.4167,-64.3167,15,"CAP-D'ESPOIR","QUEBEC",34
"CA007051055",1973,2023,"QC",48.85,-64.2,15,"CAP DES ROSIERS","QUEBEC",51
"CA007051163",1992,2025,"QC",49.25,-65.3167,29,"CAP-MADELEINE","QUEBEC",34
"CA007053038",1992,2023,"QC",49.0833,-61.7,7,"HEATH POINT","QUEBEC",32
"CA007053649",1972,2024,"QC",48.2833,-67.5667,236,"LAC HUMQUI","QUEBEC",53
"CA007053KGR",1994,2025,"QC",47.4333,-61.7667,8,"ILES DE LA MADELEINE","QUEBEC",32
"CA007054096",1996,2025,"QC",47.35,-70.0333,31,"LA POCATIERE","QUEBEC",30
"CA007055121",2013,2024,"QC",48.6167,-68.2,52,"MONT JOLI A","QUEBEC",12
"CA007055422",1994,2025,"QC",48.0167,-65.3333,46,"NEW CARLISLE 1","QUEBEC",32
"CA007056068",1996,2025,"QC",48.5167,-68.4667,5,"POINTE-AU-PERE (INRS)","QUEBEC",30
"CA007056202",1992,2025,"QC",49.8333,-64.3,55,"PORT-MENIER","QUEBEC",34
"CA007056616",1992,2025,"QC",47.8,-69.55,147,"RIVIERE-DU-LOUP","QUEBEC",34
"CA007056930",1963,2024,"QC",46.4833,-70.2167,396,"ST CAMILLE","QUEBEC",62
"CA007057395",1963,2024,"QC",48.8833,-67.1167,351,"ST JEAN DE CHERBOURG","QUEBEC",62
"CA007057515",1963,2024,"QC",46.7333,-70.0167,373,"STE LUCIE","QUEBEC",62
"CA007057567",1978,2024,"QC",46.8667,-70.8833,69,"SAINT MICHEL","QUEBEC",47
"CA00705LKPQ",1994,2025,"QC",48.4167,-68.9,7,"ILE BICQUETTE","QUEBEC",32
"CA00705S002",1996,2025,"QC",49.1167,-66.65,5,"CAP-CHAT","QUEBEC",30
"CA007060400",1942,2025,"QC",48.3333,-71,159,"BAGOTVILLE A","QUEBEC",84
"CA007060826",1994,2025,"QC",50.7333,-71.0167,498,"BONNARD 1","QUEBEC",32
"CA007061288",1995,2025,"QC",49.2833,-73.35,304,"CHAMOUCHOUANE","QUEBEC",31
"CA007063370",1963,2025,"QC",48.4333,-71.15,136,"JONQUIERE","QUEBEC",63
"CA007064181",2001,2025,"QC",48.3,-71.1333,163,"LATERRIERE","QUEBEC",25
"CA007065012",1996,2025,"QC",48.6,-71.7167,113,"MISTOOK","QUEBEC",30
"CA007065639",1993,2025,"QC",48.85,-72.55,137,"NORMANDIN","QUEBEC",33
"CA007065738",1997,2025,"QC",48.9,-71.0333,304,"ONATCHIWAY","QUEBEC",29
"CA007066820",1954,2024,"QC",48.5667,-71.3333,122,"ST AMBROISE","QUEBEC",71
"CA007067658",1980,2024,"QC",48.6167,-72.4167,122,"ST PRIME","QUEBEC",45
"CA00706I001",1995,2025,"QC",51.5333,-71.1167,549,"LAC BENOIT","QUEBEC",31
"CA00706I155",1994,2025,"QC",50.65,-70.5333,497,"MANOUANE EST","QUEBEC",32
"CA00706Q001",1997,2025,"QC",48.3,-70.9167,152,"LA BAIE","QUEBEC",29
"CA007075800",1943,2025,"QC",47.9167,-74.6167,445,"PARENT","QUEBEC",83
"CA007077570",1966,2024,"QC",46.6833,-73.9167,351,"ST MICHEL DES SAINTS","QUEBEC",59
"CA007077571",2009,2025,"QC",46.8167,-74.1,430,"SAINT-MICHEL-DES-SAINTS","QUEBEC",17
"CA00707DBD4",1994,2025,"QC",47.4167,-72.7833,169,"LA TUQUE","QUEBEC",32
"CA007080468",1910,2025,"QC",46.7167,-79.1,181,"BARRAGE TEMISCAMINGUE","QUEBEC",116
"CA007085106",1980,2024,"QC",48.4167,-78.7333,305,"MONT BRUN","QUEBEC",45
"CA007086716",1994,2025,"QC",48.25,-79.0333,318,"ROUYN","QUEBEC",32
"CA007091299",2001,2025,"QC",49.8167,-74.9833,381,"CHAPAIS","QUEBEC",25
"CA007091404",1977,2025,"QC",49.7667,-74.5333,387,"CHIBOUGAMAU CHAPAIS A","QUEBEC",49
"CA007093714",2011,2025,"QC",53.75,-73.6833,306,"LA GRANDE 4","QUEBEC",15
"CA007093716",1977,2025,"QC",53.6333,-77.7,195,"LA GRANDE RIVIERE A","QUEBEC",49
"CA007093GJ5",1985,2025,"QC",53.75,-73.6833,306,"LA GRANDE IV","QUEBEC",41
"CA007094636",2011,2025,"QC",49.7667,-77.8,280,"MATAGAMI","QUEBEC",15
"CA007094637",1992,2025,"QC",49.75,-77.8,281,"MATAGAMI  A","QUEBEC",34
"CA007098603",2008,2024,"QC",48.05,-77.7833,336,"VAL-D'OR A","QUEBEC",17
"CA007098605",2011,2025,"QC",48.05,-77.7833,337,"VAL D'OR","QUEBEC",15
"CA00709CEE9",1973,2024,"QC",48.8,-78.2833,305,"LAC BERRY","QUEBEC",52
"CA007103280",2011,2025,"QC",58.4667,-78.0833,25,"INUKJUAK","QUEBEC",15
"CA00710S005",2008,2024,"QC",58.4667,-78.0833,26,"INUKJUAK A","QUEBEC",17
"CA007113534",1947,2025,"QC",58.1,-68.4167,40,"KUUJJUAQ A","QUEBEC",79
"CA007115800",2009,2025,"QC",61.3167,-73.6667,503,"PARC NATIONAL DES PINGUALUIT","QUEBEC",17
"CA007116505",2006,2025,"QC",57.9167,-72.9833,171,"RIVIERE AUX FEUILLES","QUEBEC",20
"CA007117823",2012,2024,"QC",54.8,-66.8,521,"SCHEFFERVILLE","QUEBEC",13
"CA007117827",1957,2025,"QC",54.8,-66.8,517,"SCHEFFERVILLE A","QUEBEC",69
"CA008100300",1929,2024,"NB",46.7167,-67.7167,80,"AROOSTOOK","NEW BRUNSWICK",96
"CA008100467",1993,2025,"NB",47.8,-64.8333,5,"BAS CARAQUET","NEW BRUNSWICK",33
"CA008100885",2003,2025,"NB",47.9833,-66.3333,42,"CHARLO AUTO","NEW BRUNSWICK",23
"CA008100989",2005,2025,"NB",47.0167,-65.4667,33,"MIRAMICHI RCS","NEW BRUNSWICK",21
"CA008101303",2004,2025,"NB",47.4167,-68.3167,154,"EDMUNDSTON","NEW BRUNSWICK",22
"CA008101605",2000,2025,"NB",45.9167,-66.6167,35,"FREDERICTON CDA CS","NEW BRUNSWICK",26
"CA008101746",1993,2025,"NB",45.6,-64.95,43,"FUNDY PARK (ALMA) CS","NEW BRUNSWICK",33
"CA008101925",2000,2025,"NB",44.7167,-66.8,78,"GRAND MANAN SAR CS","NEW BRUNSWICK",26
"CA008102536",1973,2024,"NB",45.95,-66.9,110,"MACTAQUAC PROV PARK","NEW BRUNSWICK",52
"CA008102848",2006,2025,"NB",45.7,-65.1667,403,"MECHANIC SETTLEMENT","NEW BRUNSWICK",20
"CA008103050",1957,2025,"NB",48.0167,-64.5,4,"MISCOU ISLAND (AUT)","NEW BRUNSWICK",69
"CA008103201",2012,2024,"NB",46.1167,-64.6833,71,"MONCTON INTL A","NEW BRUNSWICK",13
"CA008103780",2011,2024,"NB",45.5,-66.1,11,"OAK POINT, NB","NEW BRUNSWICK",14
"CA008104201",1992,2025,"NB",45.0667,-66.45,6,"POINT LEPREAU CS","NEW BRUNSWICK",34
"CA008104295",2010,2025,"NB",47.4333,-65.6,124,"RED PINES","NEW BRUNSWICK",16
"CA008104901",2012,2024,"NB",45.3167,-65.8833,109,"SAINT JOHN A","NEW BRUNSWICK",13
"CA008104935",2006,2024,"NB",45.2167,-67.25,26,"ST. STEPHEN","NEW BRUNSWICK",19
"CA008200255",2007,2025,"NS",43.45,-65.4667,5,"BACCARO PT","NOVA SCOTIA",19
"CA008200558",1992,2025,"NS",44.8167,-62.3333,16,"BEAVER ISLAND (AUT)","NOVA SCOTIA",34
"CA008200604",2005,2025,"NS",44.2833,-66.35,16,"BRIER ISLAND","NOVA SCOTIA",21
"CA008200774",1993,2025,"NS",45.7667,-62.6833,2,"CARIBOU POINT (AUT)","NOVA SCOTIA",33
"CA008201390",2003,2025,"NS",45.4167,-63.4667,38,"DEBERT","NOVA SCOTIA",23
"CA008201780",2011,2025,"NS",45.9167,-60.65,28,"ESKASONI FIRST NATION AUTOMATI","NOVA SCOTIA",15
"CA008201969",2005,2024,"NS",46.55,-61.05,13,"GRAND ETANG","NOVA SCOTIA",20
"CA008202000",1942,2025,"NS",44.9833,-64.9167,28,"GREENWOOD A","NOVA SCOTIA",84
"CA008202251",2012,2024,"NS",44.8833,-63.5167,145,"HALIFAX INTL A","NOVA SCOTIA",13
"CA008202318",1993,2025,"NS",45.35,-60.9833,8,"HART ISLAND (AUT)","NOVA SCOTIA",33
"CA008202502",2000,2025,"NS",46.6667,-60.4,10,"INGONISH BEACH RCS","NOVA SCOTIA",26
"CA008202592",1993,2025,"NS",44.4,-65.2,125,"KEJIMKUJIK 1","NOVA SCOTIA",33
"CA008202810",1996,2025,"NS",45.0667,-64.4833,49,"KENTVILLE CDA CS","NOVA SCOTIA",30
"CA008203210",2005,2024,"NS",44.3667,-64.3,4,"LUNENBURG","NOVA SCOTIA",20
"CA008203405",2000,2024,"NS",44.9833,-62.4833,40,"MALAY FALLS","NOVA SCOTIA",25
"CA008203478",2005,2024,"NS",44.6,-63.5333,15,"MCNABS ISLAND (AUT)","NOVA SCOTIA",20
"CA008203702",2003,2025,"NS",45.7667,-64.2333,20,"NAPPAN AUTO","NOVA SCOTIA",23
"CA008204161",1998,2025,"NS",46.8167,-60.6667,439,"NORTH MOUNTAIN CS","NOVA SCOTIA",28
"CA008204193",2005,2025,"NS",45.2333,-63.05,24,"UPPER STEWIACKE RCS","NOVA SCOTIA",21
"CA008204402",2004,2025,"NS",45.4167,-64.35,31,"PARRSBORO","NOVA SCOTIA",22
"CA008204453",1979,2024,"NS",44.7667,-63.8333,165,"POCKWOCK LAKE","NOVA SCOTIA",46
"CA008204495",2010,2025,"NS",45.65,-61.3667,115,"PORT HAWKESBURY","NOVA SCOTIA",16
"CA008204909",1993,2025,"NS",47.2333,-60.15,27,"ST PAUL ISLAND (AUT)","NOVA SCOTIA",33
"CA008205092",2008,2025,"NS",44.6333,-63.5167,24,"SHEARWATER RCS","NOVA SCOTIA",18
"CA008205700",1941,2025,"NS",46.1667,-60.05,62,"SYDNEY A","NOVA SCOTIA",85
"CA008205702",2006,2025,"NS",46.1667,-60.05,63,"SYDNEY CS","NOVA SCOTIA",20
"CA008205895",2003,2025,"NS",45.6167,-61.6833,67,"TRACADIE","NOVA SCOTIA",23
"CA008206222",1980,2023,"NS",45.05,-64.65,31,"WATERVILLE CAMBRIDGE","NOVA SCOTIA",44
"CA008206240",1959,2025,"NS",43.9833,-64.6667,10,"WESTERN HEAD","NOVA SCOTIA",67
"CA008206491",2012,2025,"NS",43.8333,-66.0833,36,"YARMOUTH RCS","NOVA SCOTIA",14
"CA008206495",1955,2025,"NS",43.8333,-66.0833,43,"YARMOUTH A","NOVA SCOTIA",71
"CA008300300",1943,2025,"PE",46.2833,-63.1333,49,"CHARLOTTETOWN A","PRINCE EDWARD ISLAND",83
"CA008300301",2012,2024,"PE",46.2833,-63.1167,49,"CHARLOTTETOWN A","PRINCE EDWARD ISLAND",13
"CA008300418",1992,2025,"PE",46.4667,-61.9833,8,"EAST POINT (AUT)","PRINCE EDWARD ISLAND",34
"CA008300497",1971,2023,"PE",46.4167,-63.35,6,"NEW GLASGOW","PRINCE EDWARD ISLAND",53
"CA008300516",2002,2025,"PE",47.05,-64,8,"NORTH CAPE","PRINCE EDWARD ISLAND",24
"CA008300562",2003,2025,"PE",46.45,-62.5833,30,"ST. PETERS","PRINCE EDWARD ISLAND",23
"CA008300590",1961,2024,"PE",46.4167,-63.0833,3,"STANHOPE","PRINCE EDWARD ISLAND",64
"CA008300596",1999,2025,"PE",46.4333,-63.8333,12,"SUMMERSIDE","PRINCE EDWARD ISLAND",27
"CA008305500",2004,2024,"PE",46.3,-63.5833,46,"MAPLE PLAINS","PRINCE EDWARD ISLAND",21
"CA00830P001",2000,2025,"PE",46.35,-63.1667,53,"HARRINGTON CDA CS","PRINCE EDWARD ISLAND",26
"CA008400104",1992,2025,"NL",47.3,-54,19,"ARGENTIA (AUT)","NEWFOUNDLAND AND LABRADOR",34
"CA008400301",1973,2025,"NL",48.9667,-56.0667,103,"BADGER (AUT)","NEWFOUNDLAND AND LABRADOR",53
"CA008400601",2006,2024,"NL",48.6667,-53.1167,26,"BONAVISTA","NEWFOUNDLAND AND LABRADOR",19
"CA008400801",2005,2025,"NL",47.6167,-57.6167,11,"BURGEO NL","NEWFOUNDLAND AND LABRADOR",21
"CA008400812",1972,2024,"NL",48.1667,-57.3333,299,"BURNT POND","NEWFOUNDLAND AND LABRADOR",53
"CA008401000",1920,2025,"NL",46.6667,-53.0833,27,"CAPE RACE (AUT)","NEWFOUNDLAND AND LABRADOR",106
"CA008401295",2012,2025,"NL",49.3167,-57.4,166,"CORMACK RCS","NEWFOUNDLAND AND LABRADOR",14
"CA008401298",1993,2025,"NL",48.9333,-57.9167,152,"CORNER BROOK","NEWFOUNDLAND AND LABRADOR",33
"CA008401300",1933,2024,"NL",48.95,-57.95,5,"CORNER BROOK","NEWFOUNDLAND AND LABRADOR",92
"CA008401500",1933,2024,"NL",49.1667,-57.4333,11,"DEER LAKE","NEWFOUNDLAND AND LABRADOR",92
"CA008401502",2012,2024,"NL",49.2167,-57.4,22,"DEER LAKE A","NEWFOUNDLAND AND LABRADOR",13
"CA008401538",1993,2025,"NL",50.7167,-56.1167,30,"ENGLEE (AUT)","NEWFOUNDLAND AND LABRADOR",33
"CA008401565",1993,2025,"NL",51.0167,-57.1,6,"FEROLLE POINT (AUT)","NEWFOUNDLAND AND LABRADOR",33
"CA008401703",1957,2025,"NL",48.9333,-54.5667,151,"GANDER INTL A","NEWFOUNDLAND AND LABRADOR",69
"CA008401705",2005,2025,"NL",48.95,-54.5667,151,"GANDER AIRPORT CS","NEWFOUNDLAND AND LABRADOR",21
"CA008402520",1984,2025,"NL",49.9167,-55.6667,194,"LA SCIE","NEWFOUNDLAND AND LABRADOR",42
"CA008402544",1962,2024,"NL",48.35,-53.9,15,"LETHBRIDGE","NEWFOUNDLAND AND LABRADOR",63
"CA008402757",2013,2025,"NL",48.8167,-56.55,204,"MILLERTOWN RCS","NEWFOUNDLAND AND LABRADOR",13
"CA008403255",1993,2025,"NL",47.3667,-55.8,60,"SAGONA ISLAND","NEWFOUNDLAND AND LABRADOR",33
"CA008403399",1999,2025,"NL",51.3833,-56.1,29,"ST ANTHONY","NEWFOUNDLAND AND LABRADOR",27
"CA008403505",2012,2024,"NL",47.6167,-52.75,141,"ST. JOHN'S INTL A","NEWFOUNDLAND AND LABRADOR",13
"CA008403603",2010,2024,"NL",47.5167,-52.7833,110,"ST JOHNS WEST CLIMATE","NEWFOUNDLAND AND LABRADOR",15
"CA008403619",1977,2025,"NL",46.9167,-55.3833,49,"ST LAWRENCE","NEWFOUNDLAND AND LABRADOR",49
"CA008403800",1942,2025,"NL",48.5333,-58.55,25,"STEPHENVILLE A","NEWFOUNDLAND AND LABRADOR",84
"CA008403820",2008,2024,"NL",48.5667,-58.5667,58,"STEPHENVILLE RCS","NEWFOUNDLAND AND LABRADOR",17
"CA008403851",1996,2025,"NL",48.55,-53.9667,107,"TERRA NOVA NAT PARK CS","NEWFOUNDLAND AND LABRADOR",30
"CA008404025",1993,2025,"NL",49.6833,-54.8,92,"TWILLINGATE (AUT)","NEWFOUNDLAND AND LABRADOR",33
"CA008404343",2006,2025,"NL",47.7167,-59.3167,32,"WRECKHOUSE","NEWFOUNDLAND AND LABRADOR",20
"CA00840B053",2002,2025,"NL",48.1667,-52.9333,46,"GRATES COVE","NEWFOUNDLAND AND LABRADOR",24
"CA00840BR7C",2005,2024,"NL",49.1167,-53.5833,19,"POOLS ISLAND","NEWFOUNDLAND AND LABRADOR",20
"CA00840KN90",2005,2025,"NL",47.3333,-54.5833,22,"MARTICOT ISLAND","NEWFOUNDLAND AND LABRADOR",21
"CA008501100",1934,2025,"NL",53.7167,-57.0333,14,"CARTWRIGHT","NEWFOUNDLAND AND LABRADOR",92
"CA008501131",2011,2025,"NL",53.5667,-64.1,440,"CHURCHILL FALLS","NEWFOUNDLAND AND LABRADOR",15
"CA008501900",1941,2025,"NL",53.3167,-60.4167,49,"GOOSE A","NEWFOUNDLAND AND LABRADOR",85
"CA008502400",1942,2025,"NL",55.45,-60.2167,12,"HOPEDALE (AUT)","NEWFOUNDLAND AND LABRADOR",84
"CA008502799",2004,2025,"NL",56.55,-61.6833,8,"NAIN","NEWFOUNDLAND AND LABRADOR",22
"CAW00064757",2004,2026,"ON",44.2325,-79.7811,246,"EGBERT 1 W","ONTARIO",23
"CQC00914080",1995,2026,"MP",15.2156,145.7525,197.5,"CAPITOL HILL 1","NORTHERN MARIANA ISLANDS",32
"CQC00914801",1993,2026,"MP",14.1717,145.2428,179.2,"ROTA AP","NORTHERN MARIANA ISLANDS",34
"CQC00914855",2006,2026,"MP",15.1167,145.7167,65.5,"SAIPAN INTL AP","NORTHERN MARIANA ISLANDS",21
"FMC00914251",2003,2024,"FM",8.55,151.9092,0.9,"FANANU","MICRONESIA",22
"FMC00914325",1968,2026,"FM",1.0833,154.8,2.7,"KAPINGAMARANGI","MICRONESIA",59
"FMC00914395",1954,2026,"FM",5.3544,162.9533,2.1,"KOSRAE","MICRONESIA",73
"FMC00914590",2014,2026,"FM",3.85,155.0167,2.4,"NUKUORO","MICRONESIA",13
"FMC00914720",1997,2025,"FM",6.2167,160.7,2.4,"PINGELAP","MICRONESIA",29
"FMC00914843",1990,2024,"FM",5.3264,163.005,14.9,"TOFOL","MICRONESIA",35
"FMW00040308",1951,2026,"FM",9.4833,138.0833,13.4,"YAP ISLAND WSO AP","MICRONESIA",76
"FMW00040504",1951,2026,"FM",6.9667,158.2167,36.6,"POHNPEI WSO","MICRONESIA",76
"FMW00040505",1951,2026,"FM",7.4667,151.85,1.5,"CHUUK WSO AP","MICRONESIA",76
"GQC00914025",1953,2025,"GU",13.5761,144.9281,190.2,"ANDERSEN AFB GUAM","GUAM",73
"GQW00041406",1945,2026,"GU",13.4333,144.8,77.4,"GUAM INTERNATIONAL AIRPORT","GUAM",82
"GQW00041414",1949,2025,"GU",13.5833,144.9167,191.1,"GUAM MARSHALL ISLAND","GUAM",77
"GQW00041415",1956,2026,"GU",13.55,144.8333,110,"GUAM WSMO","GUAM",71
"MQW00022701",1949,2025,"UM",28.2,-177.3833,5.5,"MIDWAY IS HENDERSON FLD AP","U.S. MINOR OUTLYING ISLANDS",77
"PSC00914519",1983,2025,"PW",7.45,134.5,31.1,"NEKKEN FORESTRY","PALAU",43
"PSC00914712",1991,2025,"PW",7.0333,134.2667,3,"PELELIU","PALAU",35
"PSC00914904",2024,2026,"PW",7.3689,134.5411,27.4,"WSO PALAU","PALAU",3
"PSC00914913",2004,2026,"PW",7.3689,134.5411,27.4,"WSO PALAU AIRAI","PALAU",23
"PSW00040309",1951,2026,"PW",7.3367,134.4769,27.4,"KOROR","PALAU",76
"RMC00913915",2014,2026,"MH",7.2667,168.8333,1.8,"AILINGLAPALAP","MARSHALL ISLANDS",13
"RMC00914487",2014,2024,"MH",6.0833,171.7333,3,"MILI","MARSHALL ISLANDS",11
"RMC00914903",2014,2025,"MH",9.4667,170.25,1.8,"WOTJE","MARSHALL ISLANDS",12
"RMW00040604",1952,2026,"MH",8.7333,167.7333,2.1,"KWAJALEIN","MARSHALL ISLANDS",75
"RMW00040710",1955,2026,"MH",7.065,171.2719,3,"MAJURO WBAS AP","MARSHALL ISLANDS",72
"RQC00660053",2022,2025,"PR",18.1722,-66.7383,454.8,"ADJUNTAS 2 NW","PUERTO RICO",4
"RQC00660061",1970,2026,"PR",18.1747,-66.7978,557.8,"ADJUNTAS SUBSTN","PUERTO RICO",57
"RQC00660152",1955,2026,"PR",17.9556,-66.2222,7.6,"AGUIRRE","PUERTO RICO",72
"RQC00660158",1906,2026,"PR",18.1281,-66.2642,710.2,"AIBONITO 1 S","PUERTO RICO",121
"RQC00660426",1980,2026,"PR",18.3494,-66.7525,323.1,"ARECIBO OBSY","PUERTO RICO",47
"RQC00662633",2017,2025,"PR",18.3069,-66.4739,350.2,"CIALES 2S","PUERTO RICO",9
"RQC00662801",1899,2026,"PR",18.3808,-67.1569,12.2,"COLOSO","PUERTO RICO",128
"RQC00663431",1937,2025,"PR",18.3361,-66.6667,61,"DOS BOCAS","PUERTO RICO",89
"RQC00663657",1931,2026,"PR",18.3342,-65.6528,19.2,"FAJARDO","PUERTO RICO",96
"RQC00664193",1914,2026,"PR",17.9797,-66.1264,41.5,"GUAYAMA 1SW","PUERTO RICO",113
"RQC00664614",2013,2026,"PR",18.1506,-65.7719,2.7,"HUMACAO NATURAL RESERVE","PUERTO RICO",14
"RQC00664702",1901,2025,"PR",18.4653,-67.0525,128,"ISABELA SUBSTN","PUERTO RICO",125
"RQC00665064",1931,2026,"PR",18.2264,-65.9114,64.9,"JUNCOS 1 SE","PUERTO RICO",96
"RQC00665097",1900,2025,"PR",18.0331,-67.0722,27.4,"LAJAS SUBSTN","PUERTO RICO",126
"RQC00665693",1959,2025,"PR",17.9722,-67.0461,3.7,"MAGUEYES IS","PUERTO RICO",67
"RQC00665807",1900,2026,"PR",18.4308,-66.4661,76.2,"MANATI 2 E","PUERTO RICO",127
"RQC00666343",2011,2025,"PR",18.2972,-65.29,71.3,"CULEBRA HILL","PUERTO RICO",15
"RQC00666725",2011,2024,"PR",18.3169,-65.8664,466,"PALMA SOLA","PUERTO RICO",14
"RQC00666730",2009,2026,"PR",18.3853,-66.43,173.7,"PALMAREJO VEGA BAJA","PUERTO RICO",18
"RQC00667292",1898,2026,"PR",18.0258,-66.5253,21.3,"PONCE 4 E","PUERTO RICO",129
"RQC00668814",2006,2026,"PR",18.4311,-65.9917,3,"WFO SAN JUAN","PUERTO RICO",21
"RQC00669415",2004,2026,"PR",18.4356,-66.1678,8.5,"TOA BAJA LEVITTOWN","PUERTO RICO",23
"RQC00669432",2002,2025,"PR",18.1731,-66.4928,868.1,"TORO NEGRO FOREST","PUERTO RICO",24
"RQC00669521",1957,2025,"PR",18.3283,-66.0164,35.1,"TRUJILLO ALTO 2 SSW","PUERTO RICO",69
"RQC00669829",1971,2025,"PR",18.0386,-65.8394,10.7,"YABUCOA 3 SE","PUERTO RICO",55
"RQW00011603",1942,2025,"PR",18.4981,-67.1294,66.4,"BORINQUEN AP","PUERTO RICO",84
"RQW00011630",1942,2026,"PR",18.2553,-65.6411,10.1,"ROOSEVELT ROADS","PUERTO RICO",85
"RQW00011641",1956,2026,"PR",18.4325,-66.0106,3,"SAN JUAN L M MARIN INTL AP","PUERTO RICO",71
"USC00010063",2001,2026,"AL",34.2108,-87.1783,239.6,"ADDISON","ALABAMA",26
"USC00010160",1969,2025,"AL",32.935,-85.9556,201.2,"ALEXANDER CITY","ALABAMA",57
"USC00010178",1934,2025,"AL",33.1272,-88.155,59.4,"ALICEVILLE","ALABAMA",92
"USC00010260",2004,2026,"AL",34.9628,-87.3719,231.6,"LEXINGTON","ALABAMA",23
"USC00010370",2023,2026,"AL",33.2014,-85.8686,301.1,"ASHLAND 5 SSW","ALABAMA",4
"USC00010390",1991,2026,"AL",34.7753,-86.9508,210,"ATHENS","ALABAMA",36
"USC00010402",1940,2026,"AL",31.1819,-87.4389,91.4,"ATMORE","ALABAMA",87
"USC00010425",1996,2026,"AL",32.5992,-85.4653,166.1,"AUBURN NO.2","ALABAMA",31
"USC00010505",1957,2026,"AL",33.4528,-87.3572,85.3,"BANKHEAD L&D","ALABAMA",70
"USC00010583",1915,2026,"AL",30.8839,-87.7853,82.6,"BAY MINETTE","ALABAMA",112
"USC00010655",1950,2026,"AL",34.6892,-86.8819,183.8,"BELLE MINA 2 N","ALABAMA",77
"USC00010764",1977,2026,"AL",33.3936,-87.0067,132.6,"BESSEMER 3 WSW","ALABAMA",50
"USC00011080",1977,2026,"AL",31.1414,-87.0486,52.7,"BREWTON 3 ENE","ALABAMA",50
"USC00011490",2002,2026,"AL",34.15,-85.6847,184.1,"CENTRE","ALABAMA",25
"USC00011620",1957,2025,"AL",33.2814,-86.3431,126.8,"CHILDERSBURG WTP","ALABAMA",69
"USC00011694",1893,2026,"AL",32.8158,-86.6044,179.8,"CLANTON","ALABAMA",134
"USC00011725",1956,2026,"AL",31.8708,-85.45,173.4,"CLAYTON","ALABAMA",71
"USC00012096",1994,2025,"AL",34.2067,-86.8,246.9,"CULLMAN 1.5SE/KRESS FARMS","ALABAMA",32
"USC00012172",1975,2025,"AL",30.2506,-88.0775,2.4,"DAUPHIN IS","ALABAMA",51
"USC00012209",1998,2026,"AL",34.5756,-86.9339,167.6,"DECATUR 4SE","ALABAMA",29
"USC00012245",1951,2026,"AL",32.5194,-87.8794,30.5,"DEMOPOLIS L&D","ALABAMA",76
"USC00012813",1917,2025,"AL",30.5467,-87.8808,7,"FAIRHOPE 2 NE","ALABAMA",109
"USC00012883",1892,2026,"AL",33.6794,-87.83,100.9,"FAYETTE","ALABAMA",135
"USC00013043",2001,2026,"AL",34.4406,-85.7236,279.5,"FT PAYNE","ALABAMA",26
"USC00013154",1953,2026,"AL",34.0219,-85.9878,172.2,"GADSDEN","ALABAMA",74
"USC00013160",1957,2026,"AL",32.8347,-88.1342,38.1,"GAINESVILLE LOCK","ALABAMA",70
"USC00013251",1976,2026,"AL",31.0383,-85.8708,44.2,"GENEVA","ALABAMA",51
"USC00013511",1890,2026,"AL",32.6922,-87.5761,75.9,"GREENSBORO","ALABAMA",137
"USC00013519",1920,2025,"AL",31.79,-86.6086,104.2,"GREENVILLE","ALABAMA",106
"USC00013573",1910,2026,"AL",34.3344,-86.3297,176.2,"GUNTERSVILLE","ALABAMA",117
"USC00013575",1995,2026,"AL",34.3347,-86.3294,181.4,"GUNTERSVILLE NO.2","ALABAMA",32
"USC00013620",1902,2026,"AL",34.2314,-87.6353,280.4,"HALEYVILLE","ALABAMA",125
"USC00013645",1962,2026,"AL",34.1389,-87.9947,149.4,"HAMILTON","ALABAMA",65
"USC00013655",2003,2026,"AL",34.0608,-86.7906,179.8,"HANCEVILLE","ALABAMA",24
"USC00013775",1956,2025,"AL",33.6433,-85.6094,307.8,"HEFLIN","ALABAMA",70
"USC00013818",2012,2025,"AL",31.9478,-86.3131,172.2,"HIGHLAND HOME","ALABAMA",14
"USC00013931",2018,2026,"AL",32.2306,-86.3472,71.6,"HOPE HULL 3S","ALABAMA",9
"USC00014193",1965,2026,"AL",31.5253,-87.9278,67.1,"JACKSON","ALABAMA",62
"USC00014280",2019,2026,"AL",34.2936,-86.5708,313.6,"JOPPA 1SW","ALABAMA",8
"USC00014502",1944,2025,"AL",32.9069,-85.4336,225.6,"LAFAYETTE 2W","ALABAMA",82
"USC00014977",2021,2026,"AL",34.7269,-86.7456,231.6,"MADISON 2N","ALABAMA",6
"USC00015121",1950,2026,"AL",32.4717,-87.2308,68.3,"MARION JUNCTION 2 NE","ALABAMA",77
"USC00015397",2019,2025,"AL",32.0347,-85.4739,125.6,"MIDWAY","ALABAMA",7
"USC00015553",1998,2026,"AL",32.26,-86.2181,68.6,"MONTGOMERY 6SW","ALABAMA",29
"USC00015635",1957,2026,"AL",34.4883,-87.2989,189.6,"MOULTON 2","ALABAMA",70
"USC00015751",2012,2026,"AL",34.7586,-87.6411,164.6,"MUSCLE SHOALS WTP","ALABAMA",15
"USC00016001",2022,2026,"AL",33.7222,-87.3831,109.7,"OAKMAN","ALABAMA",5
"USC00016121",1894,2026,"AL",33.9264,-86.4211,333.8,"ONEONTA","ALABAMA",133
"USC00016129",1957,2025,"AL",32.6592,-85.4497,191.1,"OPELIKA","ALABAMA",69
"USC00016196",2004,2025,"AL",34.5528,-86.445,179.8,"OWENS CROSS ROADS 3S","ALABAMA",22
"USC00017025",1941,2026,"AL",33.1583,-85.2908,230.1,"ROCK MILLS","ALABAMA",86
"USC00017131",1953,2026,"AL",34.51,-87.7319,253,"RUSSELLVILLE","ALABAMA",74
"USC00017157",1907,2025,"AL",34.1744,-86.8106,238.7,"SAINT BERNARD","ALABAMA",119
"USC00017207",1949,2026,"AL",34.2878,-85.9681,362.7,"SAND MT SUBSTN","ALABAMA",78
"USC00017304",1891,2026,"AL",34.6736,-86.0536,187.5,"SCOTTSBORO","ALABAMA",136
"USC00017366",1896,2025,"AL",32.4111,-87.0144,44.8,"SELMA","ALABAMA",130
"USC00017999",1950,2026,"AL",33.2053,-86.195,153.6,"SYLACAUGA 4 NE","ALABAMA",77
"USC00018024",1893,2026,"AL",33.4172,-86.1344,154.8,"TALLADEGA","ALABAMA",134
"USC00018209",1957,2026,"AL",32.9206,-86.6708,207.3,"THORSBY EXP STN","ALABAMA",70
"USC00018323",1908,2025,"AL",31.8075,-85.9722,165.2,"TROY","ALABAMA",118
"USC00018380",1994,2026,"AL",33.2231,-87.61,50.3,"TUSCALOOSA ACFD","ALABAMA",33
"USC00018469",1893,2025,"AL",34.5686,-85.6064,341.7,"VALLEY HEAD","ALABAMA",133
"USC00018517",1956,2026,"AL",33.7417,-88.125,90.5,"VERNON","ALABAMA",71
"USC00018812",2007,2026,"AL",34.2589,-86.8989,280.4,"VINEMONT 2NNW","ALABAMA",20
"USC00018998",1973,2025,"AL",33.9108,-87.8469,158.5,"WINFIELD 2 SW","ALABAMA",53
"USC00020080",1915,2026,"AZ",32.3697,-112.86,533.7,"AJO","ARIZONA",112
"USC00020100",1975,2025,"AZ",34.2281,-113.5778,393.2,"ALAMO DAM","ARIZONA",51
"USC00020159",1912,2026,"AZ",33.8492,-109.1469,2453.6,"ALPINE","ARIZONA",115
"USC00020287",1942,2026,"AZ",31.9792,-111.3836,840.9,"ANVIL RCH","ARIZONA",85
"USC00020288",1987,2026,"AZ",33.4625,-111.4814,630.9,"APACHE JUNCTION 5 NE","ARIZONA",40
"USC00020586",1929,2026,"AZ",34.5975,-113.1744,1199.4,"BAGDAD","ARIZONA",98
"USC00020632",1940,2026,"AZ",33.8097,-111.6497,502.9,"BARTLETT DAM","ARIZONA",87
"USC00020678",1999,2026,"AZ",35.2303,-111.8222,2179.9,"BELLEMONT WFO","ARIZONA",28
"USC00020683",1990,2026,"AZ",31.8806,-110.2403,1124.7,"BENSON 6SE","ARIZONA",37
"USC00020750",1939,2025,"AZ",36.6778,-110.5411,2220.8,"BETATAKIN","ARIZONA",87
"USC00020808",1951,2025,"AZ",33.4783,-109.7517,1848.6,"BLACK RVR PUMPS","ARIZONA",75
"USC00020871",1967,2026,"AZ",34.6108,-111.1922,2097,"BLUE RIDGE RS","ARIZONA",60
"USC00020975",2019,2026,"AZ",33.28,-111.1583,742.5,"BOYCE THOMPSON ARBORETUM","ARIZONA",8
"USC00021001",1925,2025,"AZ",36.2147,-112.062,2545.1,"BRIGHT ANGEL RS","ARIZONA",101
"USC00021027",2020,2026,"AZ",33.4478,-112.5653,351.1,"BUCKEYE 5N","ARIZONA",7
"USC00021050",1977,2026,"AZ",35.1411,-114.5686,161.8,"BULLHEAD CITY","ARIZONA",50
"USC00021248",1970,2025,"AZ",36.1533,-109.5394,1709.9,"CANYON DE CHELLY","ARIZONA",56
"USC00021282",1962,2026,"AZ",33.8164,-111.9017,771.1,"CAREFREE","ARIZONA",65
"USC00021306",1903,2026,"AZ",32.8875,-111.7147,426.7,"CASA GRANDE","ARIZONA",124
"USC00021314",1908,2026,"AZ",32.9947,-111.5367,432.5,"CASA GRANDE NM","ARIZONA",119
"USC00021330",1969,2025,"AZ",32.2617,-110.3481,973.5,"CASCABEL","ARIZONA",57
"USC00021357",2007,2026,"AZ",32.4178,-110.9303,825.1,"CATALINA SP","ARIZONA",20
"USC00022109",1930,2025,"AZ",34.305,-112.165,1149.4,"CORDES","ARIZONA",96
"USC00022140",1960,2026,"AZ",31.3456,-110.2542,1597.8,"CORONADO NMEM","ARIZONA",67
"USC00022754",1901,2026,"AZ",32.7481,-109.1214,1115.6,"DUNCAN","ARIZONA",126
"USC00022782",2002,2026,"AZ",33.4192,-111.6444,462.7,"E MESA","ARIZONA",25
"USC00023009",1984,2025,"AZ",35.1611,-111.7311,2171.7,"FLAGSTAFF 4 SW","ARIZONA",42
"USC00023013",2020,2026,"AZ",35.3836,-111.7294,2481.1,"FLAGSTAFF 14N","ARIZONA",7
"USC00023150",1966,2025,"AZ",33.0094,-109.9855,864.1,"FT THOMAS 2 SW","ARIZONA",60
"USC00023160",1909,2025,"AZ",35.2719,-111.73,2239.1,"FT VALLEY","ARIZONA",117
"USC00023190",1979,2026,"AZ",33.6011,-111.7128,481.6,"FOUNTAIN HILLS","ARIZONA",48
"USC00023393",1892,2025,"AZ",32.9381,-112.6811,242,"GILA BEND 2SE","ARIZONA",134
"USC00023501",2009,2026,"AZ",33.3903,-110.7894,1115.6,"GLOBE","ARIZONA",18
"USC00023582",2011,2026,"AZ",36.0594,-112.1094,2158.9,"GRAND CANYON VISITOR CTR","ARIZONA",16
"USC00023584",2011,2026,"AZ",36.0353,-111.8303,2279.9,"GRAND CANYON E ENTRANCE","ARIZONA",16
"USC00023668",1998,2025,"AZ",31.8931,-110.9978,883.9,"GREEN VALLEY","ARIZONA",28
"USC00023828",1969,2026,"AZ",34.7425,-111.4094,2279.9,"HAPPY JACK RS","ARIZONA",58
"USC00023961",1950,2025,"AZ",34.3925,-110.5581,2008.6,"HEBER (BLACK MESA) RS","ARIZONA",76
"USC00024453",1897,2026,"AZ",34.7539,-112.1114,1508.8,"JEROME","ARIZONA",130
"USC00024534",2009,2026,"AZ",31.8353,-110.3553,1429.5,"KARTCHNER CAVERNS","ARIZONA",18
"USC00024675",1960,2026,"AZ",31.9603,-111.5978,2069.6,"KITT PEAK","ARIZONA",67
"USC00024761",1991,2026,"AZ",34.5031,-114.3603,136.9,"LAKE HAVASU CITY","ARIZONA",36
"USC00025412",1933,2025,"AZ",34.1133,-109.86,2237.2,"MCNARY 2N","ARIZONA",93
"USC00025418",2011,2026,"AZ",31.6017,-109.6686,1271,"MC NEAL","ARIZONA",16
"USC00025494",1962,2025,"AZ",35.0364,-111.0231,1687.1,"METEOR CRATER","ARIZONA",64
"USC00025635",1938,2026,"AZ",34.6106,-111.8383,969.3,"MONTEZUMA CASTLE NM","ARIZONA",89
"USC00025700",1923,2026,"AZ",33.5536,-111.4453,519.7,"MORMON FLAT","ARIZONA",104
"USC00025732",1958,2024,"AZ",32.4486,-110.7544,2411.9,"MT LEMMON FIRE DEPT","ARIZONA",67
"USC00025737",2018,2026,"AZ",32.3858,-110.6981,2147.9,"MT LEMMON WILLOW CANYON","ARIZONA",9
"USC00025825",1914,2026,"AZ",34.3219,-111.4533,1404.5,"NATURAL BRG","ARIZONA",113
"USC00025924",1952,2026,"AZ",31.4553,-110.9681,1054.9,"NOGALES 6 N","ARIZONA",75
"USC00026117",2010,2026,"AZ",32.61,-110.7317,1400.6,"ORACLE SP","ARIZONA",17
"USC00026132",1944,2026,"AZ",31.9556,-112.8003,511.5,"ORGAN PIPE CACTUS NM","ARIZONA",83
"USC00026190",1973,2026,"AZ",35.0675,-109.78,1755.6,"PAINTED DESERT NP","ARIZONA",54
"USC00026194",2003,2025,"AZ",33.0772,-113.0317,173.1,"PAINTED ROCK DAM","ARIZONA",23
"USC00026242",1906,2026,"AZ",31.9353,-109.2186,1664.2,"PARADISE","ARIZONA",121
"USC00026250",1893,2024,"AZ",34.1547,-114.2908,128,"PARKER","ARIZONA",132
"USC00026282",2018,2025,"AZ",31.5392,-110.7603,1232.6,"PATAGONIA PATON CTR","ARIZONA",8
"USC00026353",1913,2026,"AZ",31.9372,-109.8394,1322.5,"PEARCE - SUNSITES","ARIZONA",114
"USC00026468",1931,2025,"AZ",34.7994,-109.885,1659.9,"PETRIFIED FOREST NP","ARIZONA",95
"USC00026471",1966,2026,"AZ",36.1067,-112.0947,771.1,"PHANTOM RCH","ARIZONA",61
"USC00026482",2019,2025,"AZ",33.4436,-112.0239,336.8,"PHOENIX AP ASOS BACKUP","ARIZONA",7
"USC00026513",1987,2026,"AZ",32.6464,-111.4017,603.8,"PICACHO 8 SE","ARIZONA",40
"USC00026603",2002,2026,"AZ",33.7275,-111.8606,781.8,"PINNACLE PEAK","ARIZONA",25
"USC00026616",1963,2026,"AZ",36.8625,-112.7375,1499.6,"PIPE SPRING NM","ARIZONA",64
"USC00026653",1964,2025,"AZ",34.1003,-110.9658,1579.8,"PLEASANT VALLEY","ARIZONA",62
"USC00026796",1898,2026,"AZ",34.5706,-112.4322,1586.5,"PRESCOTT","ARIZONA",129
"USC00027187",2011,2026,"AZ",32.8114,-111.6314,455.7,"ROBSON RCH","ARIZONA",16
"USC00027281",1905,2025,"AZ",33.6489,-111.1089,794,"ROOSEVELT 1 S","ARIZONA",121
"USC00027390",1948,2025,"AZ",32.815,-109.6808,900.4,"SAFFORD AG CTR","ARIZONA",78
"USC00027398",2009,2026,"AZ",32.1794,-110.7364,938.8,"SAGUARO NP","ARIZONA",18
"USC00027435",1901,2026,"AZ",34.5181,-109.4011,1764.8,"SAINT JOHNS","ARIZONA",126
"USC00027480",1900,2025,"AZ",33.1819,-110.5261,771.8,"SAN CARLOS RSVR","ARIZONA",126
"USC00027488",1949,2025,"AZ",35.2239,-109.3222,1784,"SANDERS","ARIZONA",77
"USC00027530",1954,2025,"AZ",32.6014,-110.6292,1042.4,"SAN MANUEL","ARIZONA",72
"USC00027560",1903,2026,"AZ",32.2933,-109.2267,1090.9,"SAN SIMON","ARIZONA",124
"USC00027619",1959,2026,"AZ",31.4831,-111.5436,1094.2,"SASABE","ARIZONA",68
"USC00027708",1943,2026,"AZ",34.8611,-111.8197,1350.3,"SEDONA","ARIZONA",84
"USC00027716",1904,2025,"AZ",35.3319,-112.8794,1600.2,"SELIGMAN","ARIZONA",122
"USC00027855",1965,2026,"AZ",34.2639,-110.0075,1954.1,"SHOW LOW AP","ARIZONA",62
"USC00027880",1982,2026,"AZ",31.5369,-110.2808,1403.9,"SIERRA VISTA","ARIZONA",45
"USC00027990",2012,2025,"AZ",31.6811,-110.6553,1492,"SONOITA","ARIZONA",14
"USC00028162",1911,2025,"AZ",34.1311,-109.275,2133,"SPRINGERVILLE","ARIZONA",115
"USC00028214",1961,2025,"AZ",33.5589,-111.5367,433.4,"STEWART MTN DAM","ARIZONA",65
"USC00028326",1971,2026,"AZ",33.9733,-109.5631,2856,"SUNRISE MTN","ARIZONA",56
"USC00028329",1969,2026,"AZ",35.3694,-111.5436,2127.5,"SUNSET CRATER NM","ARIZONA",58
"USC00028396",1969,2026,"AZ",32.7225,-113.9192,98.8,"TACNA 3 NE","ARIZONA",58
"USC00028468",1962,2025,"AZ",36.9233,-109.09,1612.4,"TEEC NOS POS","ARIZONA",64
"USC00028499",1953,2026,"AZ",33.4256,-111.9217,355.7,"TEMPE ASU","ARIZONA",74
"USC00028590",2009,2026,"AZ",32.3392,-110.9808,770.2,"TOHONO CHUL","ARIZONA",18
"USC00028619",1893,2026,"AZ",31.7119,-110.0686,1420.1,"TOMBSTONE","ARIZONA",134
"USC00028795",1982,2026,"AZ",32.2542,-111.1961,780.6,"TUCSON 17 NW","ARIZONA",45
"USC00028865",1946,2025,"AZ",31.5678,-111.0497,995.8,"TUMACACORI NM","ARIZONA",80
"USC00028904",1977,2026,"AZ",34.7706,-112.0264,1057.7,"TUZIGOOT","ARIZONA",50
